$GPGGA,180728.000,4837.6250,N,00901.1948,E,1,4,2.8,0530.9,M,0.0,M,,0000*6C
$GPGSV,3,1,09,20,45,000,35,11,45,030,40,17,45,060,40,23,45,090,43*7A
$GPGSV,3,2,09,32,45,120,34,31,45,150,0,14,45,180,0,13,45,210,40*7B
$GPGSV,3,3,09,04,45,240,0*73
$GPRMC,180728.000,A,4837.6250,N,00901.1948,E,045.90,155.04,091208,,,E*64
$RTDIST,A,3,2.9,2.8,1.0,0*60
$GPGGA,180729.000,4837.6131,N,00901.2022,E,1,4,2.8,0531.1,M,0.0,M,,0000*66
$GPGSV,3,1,09,20,45,000,35,11,45,030,40,17,45,060,40,23,45,090,43*7A
$GPGSV,3,2,09,32,45,120,34,31,45,150,0,14,45,180,0,13,45,210,40*7B
$GPGSV,3,3,09,04,45,240,0*73
$GPRMC,180729.000,A,4837.6131,N,00901.2022,E,046.12,157.09,091208,,,E*61
$RTDIST,A,3,2.9,2.8,1.0,23*51
$GPGGA,180732.000,4837.5888,N,00901.2164,E,1,4,2.8,0531.6,M,0.0,M,,0000*60
$GPGSV,3,1,09,20,45,000,32,11,45,030,40,17,45,060,39,23,45,090,43*73
$GPGSV,3,2,09,32,45,120,27,31,45,150,37,14,45,180,26,13,45,210,39*77
$GPGSV,3,3,09,04,45,240,30*40
$GPRMC,180732.000,A,4837.5888,N,00901.2164,E,046.52,158.71,091208,,,E*64
$RTDIST,A,3,2.9,2.8,1.0,72*55
$GPGGA,180734.000,4837.5643,N,00901.2303,E,1,4,2.8,0532.2,M,0.0,M,,0000*6B
$GPGSV,3,1,09,20,45,000,31,11,45,030,39,17,45,060,39,23,45,090,43*7E
$GPGSV,3,2,09,32,45,120,28,31,45,150,38,14,45,180,25,13,45,210,40*7A
$GPGSV,3,3,09,04,45,240,31*41
$GPRMC,180734.000,A,4837.5643,N,00901.2303,E,046.98,158.85,091208,,,E*65
$RTDIST,A,3,2.9,2.8,1.0,120*63
$GPGGA,180736.000,4837.5396,N,00901.2441,E,1,4,2.8,0532.8,M,0.0,M,,0000*6F
$GPGSV,3,1,09,20,45,000,31,11,45,030,39,17,45,060,38,23,45,090,43*7F
$GPGSV,3,2,09,32,45,120,28,31,45,150,38,14,45,180,25,13,45,210,36*7B
$GPGSV,3,3,09,04,45,240,31*41
$GPRMC,180736.000,A,4837.5396,N,00901.2441,E,047.44,159.04,091208,,,E*63
$RTDIST,A,3,2.9,2.8,1.0,169*6E
$GPGGA,180738.000,4837.5146,N,00901.2578,E,1,4,2.8,0533.6,M,0.0,M,,0000*6A
$GPGSV,3,1,09,20,45,000,31,11,45,030,39,17,45,060,38,23,45,090,43*7F
$GPGSV,3,2,09,32,45,120,28,31,45,150,38,14,45,180,20,13,45,210,35*7D
$GPGSV,3,3,09,04,45,240,24*45
$GPRMC,180738.000,A,4837.5146,N,00901.2578,E,047.80,159.61,091208,,,E*62
$RTDIST,A,3,2.9,2.8,1.0,218*6B
$GPGGA,180740.000,4837.4895,N,00901.2706,E,1,4,2.8,0534.3,M,0.0,M,,0000*6A
$GPGSV,3,1,09,20,45,000,31,11,45,030,38,17,45,060,38,23,45,090,43*7E
$GPGSV,3,2,09,32,45,120,28,31,45,150,37,14,45,180,21,13,45,210,36*70
$GPGSV,3,3,09,04,45,240,24*45
$GPRMC,180740.000,A,4837.4895,N,00901.2706,E,047.59,161.71,091208,,,E*6E
$RTDIST,A,3,2.9,2.8,1.0,267*63
$GPGGA,180742.000,4837.4643,N,00901.2821,E,1,4,2.8,0534.8,M,0.0,M,,0000*6C
$GPGSV,3,1,09,20,45,000,31,11,45,030,38,17,45,060,39,23,45,090,44*78
$GPGSV,3,2,09,32,45,120,0,31,45,150,37,14,45,180,25,13,45,210,36*4E
$GPGSV,3,3,09,04,45,240,24*45
$GPRMC,180742.000,A,4837.4643,N,00901.2821,E,047.05,163.18,091208,,,E*67
$RTDIST,A,3,2.9,2.8,1.0,316*64
$GPGGA,180744.000,4837.4393,N,00901.2922,E,1,4,2.8,0535.1,M,0.0,M,,0000*68
$GPGSV,3,1,09,20,45,000,31,11,45,030,37,17,45,060,39,23,45,090,44*77
$GPGSV,3,2,09,32,45,120,30,31,45,150,37,14,45,180,27,13,45,210,32*7B
$GPGSV,3,3,09,04,45,240,25*44
$GPRMC,180744.000,A,4837.4393,N,00901.2922,E,045.28,165.22,091208,,,E*69
$RTDIST,A,3,2.9,2.8,1.0,363*66
$GPGGA,180746.000,4837.4155,N,00901.3010,E,1,4,2.8,0535.3,M,0.0,M,,0000*69
$GPGSV,3,1,09,20,45,000,31,11,45,030,37,17,45,060,40,23,45,090,44*79
$GPGSV,3,2,09,32,45,120,29,31,45,150,38,14,45,180,26,13,45,210,31*7E
$GPGSV,3,3,09,04,45,240,24*45
$GPRMC,180746.000,A,4837.4155,N,00901.3010,E,044.18,166.42,091208,,,E*6D
$RTDIST,A,3,2.9,2.8,1.0,409*6D
$GPGGA,180748.000,4837.3915,N,00901.3091,E,1,4,2.8,0535.3,M,0.0,M,,0000*65
$GPGSV,3,1,09,20,45,000,31,32,45,030,29,11,45,060,37,17,45,090,40*72
$GPGSV,3,2,09,23,45,120,44,31,45,150,38,14,45,180,22,13,45,210,26*77
$GPGSV,3,3,09,04,45,240,24*45
$GPRMC,180748.000,A,4837.3915,N,00901.3091,E,044.51,167.35,091208,,,E*6D
$RTDIST,A,3,2.9,2.8,1.0,455*64
$GPGGA,180750.000,4837.3670,N,00901.3174,E,1,4,2.8,0535.1,M,0.0,M,,0000*68
$GPGSV,3,1,09,20,45,000,31,32,45,030,28,11,45,060,37,17,45,090,41*72
$GPGSV,3,2,09,23,45,120,44,31,45,150,39,14,45,180,22,13,45,210,29*79
$GPGSV,3,3,09,04,45,240,24*45
$GPRMC,180750.000,A,4837.3670,N,00901.3174,E,044.92,166.87,091208,,,E*65
$RTDIST,A,3,2.9,2.8,1.0,501*64
$GPGGA,180752.000,4837.3432,N,00901.3259,E,1,4,2.8,0534.9,M,0.0,M,,0000*6B
$GPGSV,3,1,09,20,45,000,31,32,45,030,28,11,45,060,38,17,45,090,41*7D
$GPGSV,3,2,09,23,45,120,44,31,45,150,39,14,45,180,21,13,45,210,29*7A
$GPGSV,3,3,09,04,45,240,24*45
$GPRMC,180752.000,A,4837.3432,N,00901.3259,E,044.21,166.83,091208,,,E*63
$RTDIST,A,3,2.9,2.8,1.0,547*66
$GPGGA,180754.000,4837.3194,N,00901.3343,E,1,4,2.8,0534.6,M,0.0,M,,0000*61
$GPGSV,3,1,09,20,45,000,31,32,45,030,28,11,45,060,38,17,45,090,41*7D
$GPGSV,3,2,09,23,45,120,44,31,45,150,39,14,45,180,21,13,45,210,30*72
$GPGSV,3,3,09,04,45,240,24*45
$GPRMC,180754.000,A,4837.3194,N,00901.3343,E,043.58,166.49,091208,,,E*69
$RTDIST,A,3,2.9,2.8,1.0,592*6E
$GPGGA,180756.000,4837.2961,N,00901.3428,E,1,4,2.8,0534.4,M,0.0,M,,0000*68
$GPGSV,3,1,09,20,45,000,31,32,45,030,28,11,45,060,38,17,45,090,41*7D
$GPGSV,3,2,09,23,45,120,44,31,45,150,39,14,45,180,22,13,45,210,29*79
$GPGSV,3,3,09,04,45,240,24*45
$GPRMC,180756.000,A,4837.2961,N,00901.3428,E,043.42,166.19,091208,,,E*6C
$RTDIST,A,3,2.9,2.8,1.0,636*63
$GPGGA,180758.000,4837.2729,N,00901.3515,E,1,4,2.8,0534.3,M,0.0,M,,0000*6C
$GPGSV,3,1,09,20,45,000,31,32,45,030,28,11,45,060,32,17,45,090,41*77
$GPGSV,3,2,09,23,45,120,44,31,45,150,39,14,45,180,23,13,45,210,29*78
$GPGSV,3,3,09,04,45,240,24*45
$GPRMC,180758.000,A,4837.2729,N,00901.3515,E,041.98,165.97,091208,,,E*6F
$RTDIST,A,3,2.9,2.8,1.0,680*6E
$GPGGA,180800.000,4837.2510,N,00901.3600,E,1,4,2.8,0534.2,M,0.0,M,,0000*60
$GPGSV,3,1,09,20,45,000,31,32,45,030,28,11,45,060,32,17,45,090,42*74
$GPGSV,3,2,09,23,45,120,45,31,45,150,39,14,45,180,23,13,45,210,29*79
$GPGSV,3,3,09,04,45,240,16*44
$GPRMC,180800.000,A,4837.2510,N,00901.3600,E,040.12,165.46,091208,,,E*6D
$RTDIST,A,3,2.9,2.8,1.0,722*67
$GPGGA,180802.000,4837.2295,N,00901.3683,E,1,4,2.8,0534.1,M,0.0,M,,0000*60
$GPGSV,3,1,09,20,45,000,31,32,45,030,29,11,45,060,33,17,45,090,42*74
$GPGSV,3,2,09,23,45,120,45,31,45,150,39,14,45,180,24,13,45,210,29*7E
$GPGSV,3,3,09,04,45,240,14*46
$GPRMC,180802.000,A,4837.2295,N,00901.3683,E,040.00,165.55,091208,,,E*6F
$RTDIST,A,3,2.9,2.8,1.0,763*62
$GPGGA,180804.000,4837.2077,N,00901.3759,E,1,5,3.1,0534.7,M,0.0,M,,0000*61
$GPGSV,3,1,09,20,45,000,31,32,45,030,29,11,45,060,34,17,45,090,42*73
$GPGSV,3,2,09,23,45,120,45,31,45,150,39,14,45,180,24,13,45,210,21*76
$GPGSV,3,3,09,04,45,240,15*47
$GPRMC,180804.000,A,4837.2077,N,00901.3759,E,039.68,166.10,091208,,,E*63
$RTDIST,A,3,6.3,3.1,5.5,805*6A
$GPGGA,180806.000,4837.1864,N,00901.3833,E,1,5,3.1,0535.3,M,0.0,M,,0000*6C
$GPGSV,3,1,09,20,45,000,30,32,45,030,28,11,45,060,35,17,45,090,42*72
$GPGSV,3,2,09,23,45,120,44,31,45,150,39,13,45,180,23,14,45,210,26*77
$GPGSV,3,3,09,04,45,240,15*47
$GPRMC,180806.000,A,4837.1864,N,00901.3833,E,038.82,165.97,091208,,,E*62
$RTDIST,A,3,6.3,3.1,5.5,845*6E
$GPGGA,180808.000,4837.1656,N,00901.3911,E,1,5,3.1,0535.5,M,0.0,M,,0000*6A
$GPGSV,3,1,09,20,45,000,30,32,45,030,28,11,45,060,35,17,45,090,42*72
$GPGSV,3,2,09,23,45,120,44,31,45,150,39,13,45,180,24,14,45,210,29*7F
$GPGSV,3,3,09,04,45,240,14*46
$GPRMC,180808.000,A,4837.1656,N,00901.3911,E,038.42,165.16,091208,,,E*67
$RTDIST,A,3,6.3,3.1,5.5,885*62
$GPGGA,180810.000,4837.1448,N,00901.3995,E,1,5,3.1,0535.8,M,0.0,M,,0000*6F
$GPGSV,3,1,09,20,45,000,30,32,45,030,29,11,45,060,35,17,45,090,42*73
$GPGSV,3,2,09,23,45,120,44,31,45,150,39,13,45,180,31,14,45,210,29*7B
$GPGSV,3,3,09,04,45,240,14*46
$GPRMC,180810.000,A,4837.1448,N,00901.3995,E,038.75,164.30,091208,,,E*6E
$RTDIST,A,3,6.3,3.1,5.5,925*69
$GPGGA,180812.000,4837.1242,N,00901.4081,E,1,5,3.1,0536.2,M,0.0,M,,0000*63
$GPGSV,3,1,09,20,45,000,30,32,45,030,29,11,45,060,34,17,45,090,41*71
$GPGSV,3,2,09,23,45,120,44,31,45,150,39,13,45,180,25,14,45,210,29*7E
$GPGSV,3,3,09,04,45,240,14*46
$GPRMC,180812.000,A,4837.1242,N,00901.4081,E,038.49,164.25,091208,,,E*60
$RTDIST,A,3,6.3,3.1,5.5,964*6C
$GPGGA,180814.000,4837.1040,N,00901.4166,E,1,5,3.1,0536.6,M,0.0,M,,0000*69
$GPGSV,3,1,09,20,45,000,30,32,45,030,28,11,45,060,34,17,45,090,41*70
$GPGSV,3,2,09,23,45,120,44,31,45,150,39,13,45,180,0,14,45,210,30*41
$GPGSV,3,3,09,04,45,240,13*41
$GPRMC,180814.000,A,4837.1040,N,00901.4166,E,037.02,164.38,091208,,,E*62
$RTDIST,A,3,6.3,3.1,5.5,1003*55
$GPGGA,180816.000,4837.0844,N,00901.4249,E,1,5,3.1,0536.9,M,0.0,M,,0000*67
$GPGSV,3,1,09,20,45,000,31,32,45,030,29,11,45,060,34,17,45,090,41*70
$GPGSV,3,2,09,23,45,120,44,31,45,150,39,13,45,180,25,14,45,210,30*76
$GPGSV,3,3,09,04,45,240,13*41
$GPRMC,180816.000,A,4837.0844,N,00901.4249,E,036.56,164.39,091208,,,E*62
$RTDIST,A,3,6.3,3.1,5.5,1041*53
$GPGGA,180818.000,4837.0654,N,00901.4328,E,1,5,3.1,0537.0,M,0.0,M,,0000*68
$GPGSV,3,1,09,20,45,000,31,32,45,030,29,11,45,060,34,17,45,090,41*70
$GPGSV,3,2,09,23,45,120,44,31,45,150,39,13,45,180,32,14,45,210,27*76
$GPGSV,3,3,09,04,45,240,13*41
$GPRMC,180818.000,A,4837.0654,N,00901.4328,E,034.63,164.77,091208,,,E*6B
$RTDIST,A,3,6.3,3.1,5.5,1078*59
$GPGGA,180820.000,4837.0470,N,00901.4401,E,1,5,3.1,0537.1,M,0.0,M,,0000*6A
$GPGSV,3,1,09,20,45,000,30,32,45,030,29,11,45,060,35,17,45,090,41*70
$GPGSV,3,2,09,23,45,120,44,31,45,150,39,13,45,180,32,14,45,210,23*72
$GPGSV,3,3,09,04,45,240,13*41
$GPRMC,180820.000,A,4837.0470,N,00901.4401,E,033.32,165.82,091208,,,E*60
$RTDIST,A,3,6.3,3.1,5.5,1112*54
$GPGGA,180822.000,4837.0294,N,00901.4469,E,1,5,3.1,0536.7,M,0.0,M,,0000*6D
$GPGSV,3,1,09,20,45,000,30,32,45,030,28,11,45,060,38,17,45,090,41*7C
$GPGSV,3,2,09,23,45,120,44,31,45,150,39,13,45,180,32,14,45,210,23*72
$GPGSV,3,3,09,04,45,240,13*41
$GPRMC,180822.000,A,4837.0294,N,00901.4469,E,032.66,166.17,091208,,,E*6F
$RTDIST,A,3,6.3,3.1,5.5,1146*55
$GPGGA,180824.000,4837.0123,N,00901.4548,E,1,5,3.1,0534.9,M,0.0,M,,0000*6A
$GPGSV,3,1,09,20,45,000,30,32,45,030,24,11,45,060,41,17,45,090,41*7E
$GPGSV,3,2,09,23,45,120,44,31,45,150,39,13,45,180,34,14,45,210,23*74
$GPGSV,3,3,09,04,45,240,13*41
$GPRMC,180824.000,A,4837.0123,N,00901.4548,E,033.55,165.31,091208,,,E*62
$RTDIST,A,3,6.3,3.1,5.5,1179*59
$GPGGA,180826.000,4836.9935,N,00901.4625,E,1,5,3.1,0534.0,M,0.0,M,,0000*6E
$GPGSV,3,1,09,20,45,000,30,32,45,030,24,11,45,060,41,17,45,090,41*7E
$GPGSV,3,2,09,23,45,120,43,31,45,150,39,13,45,180,37,14,45,210,30*72
$GPGSV,3,3,09,04,45,240,13*41
$GPRMC,180826.000,A,4836.9935,N,00901.4625,E,036.21,165.16,091208,,,E*6C
$RTDIST,A,3,6.3,3.1,5.5,1215*50
$GPGGA,180828.000,4836.9720,N,00901.4661,E,1,6,1.4,0543.3,M,0.0,M,,0000*6D
$GPGSV,3,1,09,20,45,000,29,32,45,030,25,11,45,060,41,17,45,090,41*77
$GPGSV,3,2,09,23,45,120,43,31,45,150,39,13,45,180,29,14,45,210,29*75
$GPGSV,3,3,09,04,45,240,13*41
$GPRMC,180828.000,A,4836.9720,N,00901.4661,E,038.35,165.72,091208,,,E*61
$RTDIST,A,3,2.4,1.4,2.0,1256*51
$GPGGA,180830.000,4836.9498,N,00901.4727,E,1,6,1.4,0548.6,M,0.0,M,,0000*69
$GPGSV,3,1,09,20,45,000,29,32,45,030,25,11,45,060,41,17,45,090,41*77
$GPGSV,3,2,09,23,45,120,43,31,45,150,39,13,45,180,31,14,45,210,29*7C
$GPGSV,3,3,09,04,45,240,14*46
$GPRMC,180830.000,A,4836.9498,N,00901.4727,E,040.70,163.20,091208,,,E*64
$RTDIST,A,3,2.4,1.4,2.0,1298*53
$GPGGA,180832.000,4836.9271,N,00901.4824,E,1,6,1.4,0550.3,M,0.0,M,,0000*6A
$GPGSV,3,1,09,20,45,000,29,32,45,030,25,11,45,060,41,17,45,090,41*77
$GPGSV,3,2,09,23,45,120,43,31,45,150,39,13,45,180,29,14,45,210,28*74
$GPGSV,3,3,09,04,45,240,15*47
$GPRMC,180832.000,A,4836.9271,N,00901.4824,E,042.94,161.83,091208,,,E*68
$RTDIST,A,3,2.4,1.4,2.0,1341*56
$GPGGA,180834.000,4836.9038,N,00901.4937,E,1,6,1.4,0551.1,M,0.0,M,,0000*63
$GPGSV,3,1,09,20,45,000,29,32,45,030,26,11,45,060,41,17,45,090,40*75
$GPGSV,3,2,09,23,45,120,43,31,45,150,34,13,45,180,24,14,45,210,20*7C
$GPGSV,3,3,09,04,45,240,15*47
$GPRMC,180834.000,A,4836.9038,N,00901.4937,E,045.13,160.75,091208,,,E*62
$RTDIST,A,3,2.4,1.4,2.0,1387*5C
$GPGGA,180836.000,4836.8797,N,00901.5070,E,1,6,1.4,0551.4,M,0.0,M,,0000*6C
$GPGSV,3,1,09,20,45,000,29,32,45,030,26,11,45,060,41,17,45,090,35*77
$GPGSV,3,2,09,23,45,120,42,31,45,150,33,13,45,180,24,14,45,210,20*7A
$GPGSV,3,3,09,04,45,240,14*46
$GPRMC,180836.000,A,4836.8797,N,00901.5070,E,047.20,158.30,091208,,,E*60
$RTDIST,A,3,2.4,1.4,2.0,1434*53
$GPGGA,180838.000,4836.8548,N,00901.5228,E,1,6,1.4,0550.8,M,0.0,M,,0000*60
$GPGSV,3,1,09,20,45,000,29,32,45,030,27,11,45,060,41,17,45,090,34*77
$GPGSV,3,2,09,23,45,120,42,31,45,150,34,13,45,180,37,14,45,210,25*7A
$GPGSV,3,3,09,04,45,240,13*41
$GPRMC,180838.000,A,4836.8548,N,00901.5228,E,048.98,155.77,091208,,,E*63
$RTDIST,A,3,2.4,1.4,2.0,1484*58
$GPGGA,180840.000,4836.8301,N,00901.5412,E,1,6,1.4,0550.1,M,0.0,M,,0000*62
$GPGSV,3,1,09,20,45,000,30,32,45,030,27,11,45,060,41,17,45,090,34*7F
$GPGSV,3,2,09,23,45,120,42,31,45,150,39,13,45,180,30,14,45,210,32*76
$GPGSV,3,3,09,04,45,240,0*73
$GPRMC,180840.000,A,4836.8301,N,00901.5412,E,050.24,151.80,091208,,,E*6A
$RTDIST,A,3,2.4,1.4,2.0,1535*53
$GPGGA,180842.000,4836.8056,N,00901.5629,E,1,6,1.4,0548.8,M,0.0,M,,0000*6B
$GPGSV,3,1,09,20,45,000,34,32,45,030,27,11,45,060,41,17,45,090,35*7A
$GPGSV,3,2,09,23,45,120,42,31,45,150,39,13,45,180,29,14,45,210,32*7E
$GPGSV,3,3,09,04,45,240,0*73
$GPRMC,180842.000,A,4836.8056,N,00901.5629,E,051.36,147.76,091208,,,E*6F
$RTDIST,A,3,2.4,1.4,2.0,1588*55
$GPGGA,180844.000,4836.7818,N,00901.5880,E,1,6,1.4,0547.0,M,0.0,M,,0000*6A
$GPGSV,3,1,09,20,45,000,36,32,45,030,28,11,45,060,41,17,45,090,40*75
$GPGSV,3,2,09,23,45,120,43,31,45,150,40,13,45,180,22,14,45,210,29*70
$GPGSV,3,3,09,04,45,240,0*73
$GPRMC,180844.000,A,4836.7818,N,00901.5880,E,052.31,142.71,091208,,,E*6F
$RTDIST,A,3,2.4,1.4,2.0,1642*50
$GPGGA,180846.000,4836.7591,N,00901.6166,E,1,6,1.4,0545.5,M,0.0,M,,0000*61
$GPGSV,3,1,09,20,45,000,36,32,45,030,28,11,45,060,41,17,45,090,41*74
$GPGSV,3,2,09,23,45,120,43,31,45,150,31,13,45,180,21,14,45,210,31*7C
$GPGSV,3,3,09,04,45,240,0*73
$GPRMC,180846.000,A,4836.7591,N,00901.6166,E,053.00,137.58,091208,,,E*69
$RTDIST,A,3,2.4,1.4,2.0,1696*59
$GPGGA,180848.000,4836.7383,N,00901.6481,E,1,6,1.4,0544.3,M,0.0,M,,0000*61
$GPGSV,3,1,09,20,45,000,36,32,45,030,28,11,45,060,41,17,45,090,36*74
$GPGSV,3,2,09,23,45,120,43,31,45,150,31,13,45,180,0,14,45,210,31*4F
$GPGSV,3,3,09,04,45,240,0*73
$GPRMC,180848.000,A,4836.7383,N,00901.6481,E,052.68,132.46,091208,,,E*6B
$RTDIST,A,3,2.4,1.4,2.0,1751*53
$GPGGA,180850.000,4836.7197,N,00901.6818,E,1,6,1.4,0543.9,M,0.0,M,,0000*6E
$GPGSV,3,1,09,20,45,000,36,32,45,030,27,11,45,060,42,17,45,090,36*78
$GPGSV,3,2,09,23,45,120,29,31,45,150,27,13,45,180,21,14,45,210,31*77
$GPGSV,3,3,09,04,45,240,0*73
$GPRMC,180850.000,A,4836.7197,N,00901.6818,E,051.18,127.13,091208,,,E*69
$RTDIST,A,3,2.4,1.4,2.0,1804*5C
$GPGGA,180852.000,4836.7044,N,00901.7166,E,1,6,1.4,0543.1,M,0.0,M,,0000*6A
$GPGSV,3,1,09,20,45,000,36,32,45,030,24,11,45,060,42,17,45,090,37*7A
$GPGSV,3,2,09,23,45,120,31,31,45,150,27,13,45,180,15,14,45,210,0*4B
$GPGSV,3,3,09,04,45,240,0*73
$GPRMC,180852.000,A,4836.7044,N,00901.7166,E,048.81,122.15,091208,,,E*6E
$RTDIST,A,3,2.4,1.4,2.0,1856*5B
$GPGGA,180854.000,4836.6914,N,00901.7509,E,1,6,1.4,0543.4,M,0.0,M,,0000*69
$GPGSV,3,1,09,20,45,000,37,32,45,030,23,11,45,060,42,17,45,090,43*7F
$GPGSV,3,2,09,23,45,120,33,31,45,150,27,13,45,180,16,14,45,210,0*4A
$GPGSV,3,3,09,04,45,240,0*73
$GPRMC,180854.000,A,4836.6914,N,00901.7509,E,046.70,119.43,091208,,,E*63
$RTDIST,A,3,2.4,1.4,2.0,1904*5D
$GPGGA,180856.000,4836.6804,N,00901.7864,E,1,6,1.4,0543.6,M,0.0,M,,0000*6F
$GPGSV,3,1,09,20,45,000,36,32,45,030,23,11,45,060,42,17,45,090,43*7E
$GPGSV,3,2,09,23,45,120,40,31,45,150,36,13,45,180,16,14,45,210,0*4E
$GPGSV,3,3,09,04,45,240,0*73
$GPRMC,180856.000,A,4836.6804,N,00901.7864,E,046.90,114.04,091208,,,E*67
$RTDIST,A,3,2.4,1.4,2.0,1952*5E
$GPGGA,180858.000,4836.6710,N,00901.8237,E,1,6,1.4,0544.6,M,0.0,M,,0000*6F
$GPGSV,3,1,09,20,45,000,34,32,45,030,24,11,45,060,42,17,45,090,42*7A
$GPGSV,3,2,09,23,45,120,40,31,45,150,36,13,45,180,16,14,45,210,0*4E
$GPGSV,3,3,09,04,45,240,0*73
$GPRMC,180858.000,A,4836.6710,N,00901.8237,E,047.59,108.95,091208,,,E*61
$RTDIST,A,3,2.4,1.4,2.0,2001*52
$GPGGA,180900.000,4836.6639,N,00901.8624,E,1,6,1.4,0545.7,M,0.0,M,,0000*6F
$GPGSV,3,1,09,20,45,000,29,32,45,030,31,11,45,060,37,17,45,090,42*70
$GPGSV,3,2,09,23,45,120,40,31,45,150,37,13,45,180,16,14,45,210,0*4F
$GPGSV,3,3,09,04,45,240,0*73
$GPRMC,180900.000,A,4836.6639,N,00901.8624,E,047.99,104.50,091208,,,E*68
$RTDIST,A,3,2.4,1.4,2.0,2050*56
$GPGGA,180902.000,4836.6584,N,00901.9018,E,1,6,1.4,0545.7,M,0.0,M,,0000*60
$GPGSV,3,1,09,20,45,000,20,32,45,030,33,11,45,060,38,17,45,090,43*75
$GPGSV,3,2,09,23,45,120,31,31,45,150,37,13,45,180,15,14,45,210,15*7E
$GPGSV,3,3,09,04,45,240,0*73
$GPRMC,180902.000,A,4836.6584,N,00901.9018,E,048.33,100.21,091208,,,E*6A
$RTDIST,A,3,2.4,1.4,2.0,2099*53
$GPGGA,180904.000,4836.6550,N,00901.9419,E,1,6,1.4,0545.7,M,0.0,M,,0000*6A
$GPGSV,3,1,09,20,45,000,22,32,45,030,33,11,45,060,39,17,45,090,42*77
$GPGSV,3,2,09,23,45,120,30,31,45,150,39,13,45,180,15,14,45,210,16*72
$GPGSV,3,3,09,04,45,240,15*47
$GPRMC,180904.000,A,4836.6550,N,00901.9419,E,048.03,95.82,091208,,,E*57
$RTDIST,A,3,2.4,1.4,2.0,2149*5F
$GPGGA,180906.000,4836.6534,N,00901.9822,E,1,6,1.4,0546.7,M,0.0,M,,0000*6D
$GPGSV,3,1,09,20,45,000,27,32,45,030,33,11,45,060,43,17,45,090,42*7F
$GPGSV,3,2,09,23,45,120,30,31,45,150,42,13,45,180,14,14,45,210,0*48
$GPGSV,3,3,09,04,45,240,14*46
$GPRMC,180906.000,A,4836.6534,N,00901.9822,E,048.04,91.66,091208,,,E*5A
$RTDIST,A,3,2.4,1.4,2.0,2198*53
$GPGGA,180908.000,4836.6531,N,00902.0224,E,1,6,1.4,0547.7,M,0.0,M,,0000*61
$GPGSV,3,1,09,20,45,000,28,32,45,030,33,11,45,060,43,17,45,090,42*70
$GPGSV,3,2,09,23,45,120,32,31,45,150,42,13,45,180,14,14,45,210,0*4A
$GPGSV,3,3,09,04,45,240,14*46
$GPRMC,180908.000,A,4836.6531,N,00902.0224,E,047.53,90.30,091208,,,E*58
$RTDIST,A,3,2.4,1.4,2.0,2248*5D
$GPGGA,180910.000,4836.6531,N,00902.0618,E,1,6,1.4,0548.7,M,0.0,M,,0000*6C
$GPGSV,3,1,09,20,45,000,29,32,45,030,33,11,45,060,42,17,45,090,42*70
$GPGSV,3,2,09,23,45,120,32,31,45,150,42,13,45,180,14,14,45,210,0*4A
$GPGSV,3,3,09,04,45,240,13*41
$GPRMC,180910.000,A,4836.6531,N,00902.0618,E,046.37,90.43,091208,,,E*5D
$RTDIST,A,3,2.4,1.4,2.0,2296*5E
$GPGGA,180912.000,4836.6531,N,00902.1005,E,1,6,1.4,0550.4,M,0.0,M,,0000*6F
$GPGSV,3,1,09,20,45,000,29,32,45,030,33,11,45,060,42,17,45,090,42*70
$GPGSV,3,2,09,23,45,120,35,31,45,150,42,13,45,180,13,14,45,210,19*72
$GPGSV,3,3,09,04,45,240,0*73
$GPRMC,180912.000,A,4836.6531,N,00902.1005,E,045.69,91.44,091208,,,E*5A
$RTDIST,A,3,2.4,1.4,2.0,2343*57
$GPGGA,180914.000,4836.6525,N,00902.1393,E,1,6,1.4,0552.2,M,0.0,M,,0000*64
$GPGSV,3,1,09,20,45,000,30,32,45,030,33,11,45,060,41,17,45,090,42*7B
$GPGSV,3,2,09,23,45,120,30,31,45,150,42,13,45,180,13,14,45,210,19*77
$GPGSV,3,3,09,04,45,240,0*73
$GPRMC,180914.000,A,4836.6525,N,00902.1393,E,046.51,94.18,091208,,,E*51
$RTDIST,A,3,2.4,1.4,2.0,2391*58
$GPGGA,180916.000,4836.6497,N,00902.1778,E,1,6,1.4,0553.1,M,0.0,M,,0000*6D
$GPGSV,3,1,09,20,45,000,30,32,45,030,34,11,45,060,41,17,45,090,42*7C
$GPGSV,3,2,09,23,45,120,28,31,45,150,41,13,45,180,12,14,45,210,19*7C
$GPGSV,3,3,09,04,45,240,0*73
$GPRMC,180916.000,A,4836.6497,N,00902.1778,E,046.13,97.32,091208,,,E*57
$RTDIST,A,3,2.4,1.4,2.0,2438*5C
$GPGGA,180918.000,4836.6456,N,00902.2162,E,1,5,2.2,0553.8,M,0.0,M,,0000*6F
$GPGSV,3,1,09,20,45,000,31,32,45,030,33,11,45,060,41,17,45,090,42*7A
$GPGSV,3,2,09,23,45,120,0,31,45,150,36,13,45,180,13,14,45,210,19*47
$GPGSV,3,3,09,04,45,240,0*73
$GPRMC,180918.000,A,4836.6456,N,00902.2162,E,047.07,100.60,091208,,,E*66
$RTDIST,A,3,3.2,2.2,2.4,2486*5F
$GPGGA,180920.000,4836.6403,N,00902.2553,E,1,6,1.4,0554.5,M,0.0,M,,0000*6E
$GPGSV,3,1,09,20,45,000,31,32,45,030,27,11,45,060,40,17,45,090,42*7E
$GPGSV,3,2,09,23,45,120,35,31,45,150,35,13,45,180,13,14,45,210,20*78
$GPGSV,3,3,09,04,45,240,0*73
$GPRMC,180920.000,A,4836.6403,N,00902.2553,E,047.93,102.69,091208,,,E*6D
$RTDIST,A,3,2.4,1.4,2.0,2535*50
$GPGGA,180922.000,4836.6344,N,00902.2956,E,1,6,1.4,0555.9,M,0.0,M,,0000*6C
$GPGSV,3,1,09,20,45,000,31,32,45,030,25,11,45,060,40,17,45,090,42*7C
$GPGSV,3,2,09,23,45,120,35,31,45,150,36,13,45,180,13,14,45,210,22*79
$GPGSV,3,3,09,04,45,240,0*73
$GPRMC,180922.000,A,4836.6344,N,00902.2956,E,050.81,103.50,091208,,,E*6C
$RTDIST,A,3,2.4,1.4,2.0,2585*5B
$GPGGA,180924.000,4836.6282,N,00902.3385,E,1,5,1.5,0556.6,M,0.0,M,,0000*6A
$GPGSV,3,1,09,20,45,000,31,32,45,030,0,11,45,060,40,17,45,090,42*4B
$GPGSV,3,2,09,23,45,120,35,31,45,150,36,13,45,180,15,14,45,210,25*78
$GPGSV,3,3,09,04,45,240,0*73
$GPRMC,180924.000,A,4836.6282,N,00902.3385,E,053.65,102.89,091208,,,E*68
$RTDIST,A,3,2.8,1.5,2.4,2639*56
$GPGGA,180926.000,4836.6206,N,00902.3835,E,1,5,1.5,0556.8,M,0.0,M,,0000*6A
$GPGSV,3,1,09,20,45,000,25,32,45,030,0,11,45,060,40,17,45,090,42*4E
$GPGSV,3,2,09,23,45,120,39,31,45,150,35,13,45,180,24,14,45,210,0*42
$GPGSV,3,3,09,04,45,240,0*73
$GPRMC,180926.000,A,4836.6206,N,00902.3835,E,056.68,105.93,091208,,,E*62
$RTDIST,A,3,2.8,1.5,2.4,2696*53
$GPGGA,180928.000,4836.6119,N,00902.4299,E,1,6,1.4,0556.9,M,0.0,M,,0000*61
$GPGSV,3,1,09,20,45,000,26,32,45,030,24,11,45,060,40,17,45,090,42*7B
$GPGSV,3,2,09,23,45,120,39,31,45,150,35,13,45,180,25,14,45,210,0*43
$GPGSV,3,3,09,04,45,240,0*73
$GPRMC,180928.000,A,4836.6119,N,00902.4299,E,058.17,105.65,091208,,,E*65
$RTDIST,A,3,2.4,1.4,2.0,2755*54
$GPGGA,180930.000,4836.6035,N,00902.4773,E,1,6,1.4,0557.0,M,0.0,M,,0000*6E
$GPGSV,3,1,09,20,45,000,26,32,45,030,24,11,45,060,40,17,45,090,42*7B
$GPGSV,3,2,09,23,45,120,39,31,45,150,35,13,45,180,18,14,45,210,0*4D
$GPGSV,3,3,09,04,45,240,0*73
$GPRMC,180930.000,A,4836.6035,N,00902.4773,E,058.36,104.92,091208,,,E*68
$RTDIST,A,3,2.4,1.4,2.0,2815*5F
$GPGGA,180932.000,4836.5952,N,00902.5245,E,1,6,1.4,0557.1,M,0.0,M,,0000*67
$GPGSV,3,1,09,20,45,000,26,32,45,030,24,11,45,060,40,17,45,090,42*7B
$GPGSV,3,2,09,23,45,120,40,31,45,150,35,13,45,180,22,14,45,210,0*4A
$GPGSV,3,3,09,04,45,240,0*73
$GPRMC,180932.000,A,4836.5952,N,00902.5245,E,057.77,104.50,091208,,,E*64
$RTDIST,A,3,2.4,1.4,2.0,2875*59
$GPGGA,180934.000,4836.5872,N,00902.5714,E,1,6,1.4,0557.4,M,0.0,M,,0000*66
$GPGSV,3,1,09,20,45,000,26,32,45,030,24,11,45,060,40,17,45,090,42*7B
$GPGSV,3,2,09,23,45,120,40,31,45,150,35,13,45,180,23,14,45,210,0*4B
$GPGSV,3,3,09,04,45,240,0*73
$GPRMC,180934.000,A,4836.5872,N,00902.5714,E,057.38,104.85,091208,,,E*63
$RTDIST,A,3,2.4,1.4,2.0,2934*5D
$GPGGA,180936.000,4836.5792,N,00902.6180,E,1,6,1.4,0557.6,M,0.0,M,,0000*6F
$GPGSV,3,1,09,20,45,000,26,32,45,030,24,11,45,060,40,17,45,090,41*78
$GPGSV,3,2,09,23,45,120,41,31,45,150,36,13,45,180,23,14,45,210,0*49
$GPGSV,3,3,09,04,45,240,0*73
$GPRMC,180936.000,A,4836.5792,N,00902.6180,E,057.14,104.58,091208,,,E*66
$RTDIST,A,3,2.4,1.4,2.0,2993*50
$GPGGA,180938.000,4836.5714,N,00902.6644,E,1,6,1.4,0557.6,M,0.0,M,,0000*60
$GPGSV,3,1,09,20,45,000,26,32,45,030,20,11,45,060,40,17,45,090,41*7C
$GPGSV,3,2,09,23,45,120,41,31,45,150,36,13,45,180,23,14,45,210,0*49
$GPGSV,3,3,09,04,45,240,0*73
$GPRMC,180938.000,A,4836.5714,N,00902.6644,E,056.92,104.46,091208,,,E*69
$RTDIST,A,3,2.4,1.4,2.0,3052*55
$GPGGA,180940.000,4836.5634,N,00902.7105,E,1,6,1.4,0557.7,M,0.0,M,,0000*6E
$GPGSV,3,1,09,20,45,000,27,32,45,030,23,11,45,060,40,17,45,090,41*7E
$GPGSV,3,2,09,23,45,120,41,31,45,150,36,13,45,180,23,14,45,210,0*49
$GPGSV,3,3,09,04,45,240,0*73
$GPRMC,180940.000,A,4836.5634,N,00902.7105,E,056.40,104.48,091208,,,E*67
$RTDIST,A,3,2.4,1.4,2.0,3110*52
$GPGGA,180942.000,4836.5559,N,00902.7550,E,1,6,1.4,0558.4,M,0.0,M,,0000*6C
$GPGSV,3,1,09,20,45,000,30,32,45,030,24,11,45,060,40,17,45,090,41*7F
$GPGSV,3,2,09,23,45,120,41,31,45,150,37,13,45,180,23,14,45,210,0*48
$GPGSV,3,3,09,04,45,240,0*73
$GPRMC,180942.000,A,4836.5559,N,00902.7550,E,053.29,105.22,091208,,,E*6E
$RTDIST,A,3,2.4,1.4,2.0,3166*53
$GPGGA,180944.000,4836.5472,N,00902.7966,E,1,6,1.4,0559.6,M,0.0,M,,0000*68
$GPGSV,3,1,09,20,45,000,31,32,45,030,24,11,45,060,41,17,45,090,41*7F
$GPGSV,3,2,09,23,45,120,42,31,45,150,27,13,45,180,25,14,45,210,23*7D
$GPGSV,3,3,09,04,45,240,0*73
$GPRMC,180944.000,A,4836.5472,N,00902.7966,E,051.94,109.51,091208,,,E*65
$RTDIST,A,3,2.4,1.4,2.0,3220*52
$GPGGA,180946.000,4836.5339,N,00902.8354,E,1,6,1.4,0559.7,M,0.0,M,,0000*67
$GPGSV,3,1,09,20,45,000,21,32,45,030,32,11,45,060,41,17,45,090,42*7A
$GPGSV,3,2,09,23,45,120,43,31,45,150,28,13,45,180,24,14,45,210,0*43
$GPGSV,3,3,09,04,45,240,0*73
$GPRMC,180946.000,A,4836.5339,N,00902.8354,E,053.24,120.75,091208,,,E*6F
$RTDIST,A,3,2.4,1.4,2.0,3273*54
$GPGGA,180948.000,4836.5160,N,00902.8722,E,1,6,1.4,0556.5,M,0.0,M,,0000*6F
$GPGSV,3,1,09,20,45,000,31,32,45,030,32,11,45,060,42,17,45,090,41*7B
$GPGSV,3,2,09,23,45,120,40,31,45,150,26,13,45,180,30,14,45,210,18*72
$GPGSV,3,3,09,04,45,240,0*73
$GPRMC,180948.000,A,4836.5160,N,00902.8722,E,055.32,129.54,091208,,,E*61
$RTDIST,A,3,2.4,1.4,2.0,3329*5A
$GPGGA,180950.000,4836.4927,N,00902.9042,E,1,6,1.4,0555.5,M,0.0,M,,0000*6F
$GPGSV,3,1,09,20,45,000,32,32,45,030,33,11,45,060,42,17,45,090,41*79
$GPGSV,3,2,09,23,45,120,43,31,45,150,25,13,45,180,24,14,45,210,18*77
$GPGSV,3,3,09,04,45,240,0*73
$GPRMC,180950.000,A,4836.4927,N,00902.9042,E,056.91,137.92,091208,,,E*6D
$RTDIST,A,3,2.4,1.4,2.0,3388*51
$GPGGA,180952.000,4836.4682,N,00902.9337,E,1,6,1.4,0557.8,M,0.0,M,,0000*63
$GPGSV,3,1,09,20,45,000,34,32,45,030,32,11,45,060,42,17,45,090,41*7E
$GPGSV,3,2,09,23,45,120,43,31,45,150,24,13,45,180,22,14,45,210,18*70
$GPGSV,3,3,09,04,45,240,0*73
$GPRMC,180952.000,A,4836.4682,N,00902.9337,E,055.37,138.81,091208,,,E*6C
$RTDIST,A,3,2.4,1.4,2.0,3445*57
$GPGGA,180954.000,4836.4449,N,00902.9639,E,1,6,1.4,0558.0,M,0.0,M,,0000*6C
$GPGSV,3,1,09,20,45,000,34,32,45,030,32,11,45,060,42,17,45,090,41*7E
$GPGSV,3,2,09,23,45,120,43,31,45,150,24,13,45,180,22,14,45,210,18*70
$GPGSV,3,3,09,04,45,240,0*73
$GPRMC,180954.000,A,4836.4449,N,00902.9639,E,055.30,138.84,091208,,,E*66
$RTDIST,A,3,2.4,1.4,2.0,3503*54
$GPGGA,180956.000,4836.4217,N,00902.9946,E,1,6,1.4,0557.2,M,0.0,M,,0000*69
$GPGSV,3,1,09,20,45,000,35,32,45,030,32,11,45,060,42,17,45,090,41*7F
$GPGSV,3,2,09,23,45,120,43,31,45,150,24,13,45,180,22,14,45,210,18*70
$GPGSV,3,3,09,04,45,240,0*73
$GPRMC,180956.000,A,4836.4217,N,00902.9946,E,055.06,138.68,091208,,,E*69
$RTDIST,A,3,2.4,1.4,2.0,3560*51
$GPGGA,180958.000,4836.3986,N,00903.0251,E,1,6,1.4,0556.7,M,0.0,M,,0000*62
$GPGSV,3,1,09,20,45,000,35,32,45,030,32,11,45,060,42,17,45,090,41*7F
$GPGSV,3,2,09,23,45,120,43,31,45,150,24,13,45,180,23,14,45,210,18*71
$GPGSV,3,3,09,04,45,240,0*73
$GPRMC,180958.000,A,4836.3986,N,00903.0251,E,055.06,138.86,091208,,,E*66
$RTDIST,A,3,2.4,1.4,2.0,3616*53
$GPGGA,181000.000,4836.3753,N,00903.0552,E,1,6,1.4,0558.0,M,0.0,M,,0000*6C
$GPGSV,3,1,09,20,45,000,35,32,45,030,32,11,45,060,42,17,45,090,41*7F
$GPGSV,3,2,09,23,45,120,37,31,45,150,24,13,45,180,25,14,45,210,17*7B
$GPGSV,3,3,09,04,45,240,0*73
$GPRMC,181000.000,A,4836.3753,N,00903.0552,E,055.51,138.53,091208,,,E*6B
$RTDIST,A,3,2.4,1.4,2.0,3673*50
$GPGGA,181002.000,4836.3519,N,00903.0857,E,1,6,1.4,0559.3,M,0.0,M,,0000*68
$GPGSV,3,1,09,20,45,000,35,32,45,030,32,11,45,060,42,17,45,090,35*7C
$GPGSV,3,2,09,23,45,120,34,31,45,150,24,13,45,180,23,14,45,210,17*7E
$GPGSV,3,3,09,04,45,240,0*73
$GPRMC,181002.000,A,4836.3519,N,00903.0857,E,055.76,138.17,091208,,,E*68
$RTDIST,A,3,2.4,1.4,2.0,3730*56
$GPGGA,181004.000,4836.3286,N,00903.1168,E,1,6,1.4,0559.3,M,0.0,M,,0000*6B
$GPGSV,3,1,09,20,45,000,35,32,45,030,32,11,45,060,41,17,45,090,35*7F
$GPGSV,3,2,09,23,45,120,40,31,45,150,24,13,45,180,23,14,45,210,18*72
$GPGSV,3,3,09,04,45,240,0*73
$GPRMC,181004.000,A,4836.3286,N,00903.1168,E,054.91,138.44,091208,,,E*65
$RTDIST,A,3,2.4,1.4,2.0,3788*55
$GPGGA,181006.000,4836.3068,N,00903.1459,E,1,6,1.4,0559.8,M,0.0,M,,0000*67
$GPGSV,3,1,09,20,45,000,35,32,45,030,31,11,45,060,42,17,45,090,36*7C
$GPGSV,3,2,09,23,45,120,42,31,45,150,25,13,45,180,23,14,45,210,25*7F
$GPGSV,3,3,09,04,45,240,0*73
$GPRMC,181006.000,A,4836.3068,N,00903.1459,E,050.32,138.67,091208,,,E*6E
$RTDIST,A,3,2.4,1.4,2.0,3842*5C
$GPGGA,181008.000,4836.2869,N,00903.1714,E,1,6,1.4,0561.0,M,0.0,M,,0000*68
$GPGSV,3,1,09,20,45,000,36,32,45,030,31,11,45,060,42,17,45,090,40*7E
$GPGSV,3,2,09,23,45,120,42,31,45,150,25,13,45,180,23,14,45,210,22*78
$GPGSV,3,3,09,04,45,240,0*73
$GPRMC,181008.000,A,4836.2869,N,00903.1714,E,044.82,138.83,091208,,,E*66
$RTDIST,A,3,2.4,1.4,2.0,3890*53
$GPGGA,181010.000,4836.2695,N,00903.1958,E,1,6,1.4,0559.3,M,0.0,M,,0000*62
$GPGSV,3,1,09,20,45,000,36,32,45,030,31,11,45,060,42,17,45,090,39*70
$GPGSV,3,2,09,23,45,120,42,31,45,150,25,13,45,180,23,14,45,210,18*71
$GPGSV,3,3,09,04,45,240,0*73
$GPRMC,181010.000,A,4836.2695,N,00903.1958,E,041.27,137.97,091208,,,E*64
$RTDIST,A,3,2.4,1.4,2.0,3934*5C
$GPGGA,181012.000,4836.2535,N,00903.2185,E,1,6,1.4,0557.2,M,0.0,M,,0000*6D
$GPGSV,3,1,09,20,45,000,36,32,45,030,32,11,45,060,42,17,45,090,39*73
$GPGSV,3,2,09,23,45,120,42,31,45,150,25,13,45,180,23,14,45,210,20*7A
$GPGSV,3,3,09,04,45,240,0*73
$GPRMC,181012.000,A,4836.2535,N,00903.2185,E,038.04,137.25,091208,,,E*62
$RTDIST,A,3,2.4,1.4,2.0,3975*59
$GPGGA,181014.000,4836.2384,N,00903.2394,E,1,5,3.0,0556.8,M,0.0,M,,0000*6B
$GPGSV,3,1,09,20,45,000,36,32,45,030,32,11,45,060,42,17,45,090,39*73
$GPGSV,3,2,09,23,45,120,42,31,45,150,0,13,45,180,23,14,45,210,26*4B
$GPGSV,3,3,09,04,45,240,0*73
$GPRMC,181014.000,A,4836.2384,N,00903.2394,E,036.65,137.97,091208,,,E*6A
$RTDIST,A,3,6.3,3.0,5.6,4013*53
$GPGGA,181016.000,4836.2238,N,00903.2609,E,1,6,1.4,0554.5,M,0.0,M,,0000*64
$GPGSV,3,1,09,20,45,000,36,32,45,030,32,11,45,060,42,17,45,090,37*7D
$GPGSV,3,2,09,23,45,120,41,31,45,150,29,13,45,180,23,14,45,210,26*73
$GPGSV,3,3,09,04,45,240,0*73
$GPRMC,181016.000,A,4836.2238,N,00903.2609,E,037.89,135.15,091208,,,E*64
$RTDIST,A,3,2.4,1.4,2.0,4050*50
$GPGGA,181018.000,4836.2077,N,00903.2842,E,1,6,1.4,0553.2,M,0.0,M,,0000*62
$GPGSV,3,1,09,20,45,000,36,32,45,030,31,11,45,060,42,17,45,090,37*7E
$GPGSV,3,2,09,23,45,120,41,31,45,150,28,13,45,180,23,14,45,210,19*7E
$GPGSV,3,3,09,04,45,240,0*73
$GPRMC,181018.000,A,4836.2077,N,00903.2842,E,042.31,136.47,091208,,,E*67
$RTDIST,A,3,2.4,1.4,2.0,4091*5D
$GPGGA,181020.000,4836.1899,N,00903.3101,E,1,6,1.4,0551.2,M,0.0,M,,0000*6F
$GPGSV,3,1,09,20,45,000,36,32,45,030,29,11,45,060,42,17,45,090,37*77
$GPGSV,3,2,09,23,45,120,34,31,45,150,28,13,45,180,23,14,45,210,19*7C
$GPGSV,3,3,09,04,45,240,0*73
$GPRMC,181020.000,A,4836.1899,N,00903.3101,E,046.71,136.63,091208,,,E*6E
$RTDIST,A,3,2.4,1.4,2.0,4137*50
$GPGGA,181022.000,4836.1702,N,00903.3385,E,1,6,1.4,0549.1,M,0.0,M,,0000*64
$GPGSV,3,1,09,20,45,000,36,32,45,030,29,11,45,060,42,17,45,090,36*76
$GPGSV,3,2,09,23,45,120,35,31,45,150,28,13,45,180,23,14,45,210,19*7D
$GPGSV,3,3,09,04,45,240,0*73
$GPRMC,181022.000,A,4836.1702,N,00903.3385,E,049.86,137.15,091208,,,E*68
$RTDIST,A,3,2.4,1.4,2.0,4188*54
$GPGGA,181024.000,4836.1494,N,00903.3676,E,1,6,1.4,0547.5,M,0.0,M,,0000*6D
$GPGSV,3,1,09,20,45,000,36,32,45,030,30,11,45,060,42,17,45,090,36*7E
$GPGSV,3,2,09,23,45,120,36,31,45,150,27,13,45,180,17,14,45,210,19*76
$GPGSV,3,3,09,04,45,240,0*73
$GPRMC,181024.000,A,4836.1494,N,00903.3676,E,051.96,136.66,091208,,,E*66
$RTDIST,A,3,2.4,1.4,2.0,4240*53
$GPGGA,181026.000,4836.1276,N,00903.3979,E,1,6,1.4,0546.6,M,0.0,M,,0000*67
$GPGSV,3,1,09,20,45,000,36,32,45,030,30,11,45,060,42,17,45,090,37*7F
$GPGSV,3,2,09,23,45,120,37,31,45,150,27,13,45,180,18,14,45,210,19*78
$GPGSV,3,3,09,04,45,240,0*73
$GPRMC,181026.000,A,4836.1276,N,00903.3979,E,054.23,137.04,091208,,,E*60
$RTDIST,A,3,2.4,1.4,2.0,4295*5B
$GPGGA,181028.000,4836.1052,N,00903.4295,E,1,6,1.4,0545.9,M,0.0,M,,0000*6F
$GPGSV,3,1,09,20,45,000,36,32,45,030,30,11,45,060,42,17,45,090,37*7F
$GPGSV,3,2,09,23,45,120,37,31,45,150,27,13,45,180,17,14,45,210,19*77
$GPGSV,3,3,09,04,45,240,0*73
$GPRMC,181028.000,A,4836.1052,N,00903.4295,E,056.47,136.30,091208,,,E*62
$RTDIST,A,3,2.4,1.4,2.0,4352*51
$GPGGA,181030.000,4836.0818,N,00903.4630,E,1,5,3.0,0544.6,M,0.0,M,,0000*61
$GPGSV,3,1,09,20,45,000,36,32,45,030,31,11,45,060,42,17,45,090,38*71
$GPGSV,3,2,09,23,45,120,42,31,45,150,0,13,45,180,17,14,45,210,19*40
$GPGSV,3,3,09,04,45,240,0*73
$GPRMC,181030.000,A,4836.0818,N,00903.4630,E,058.54,136.24,091208,,,E*6E
$RTDIST,A,3,6.4,3.0,5.6,4411*52
$GPGGA,181032.000,4836.0580,N,00903.4970,E,1,6,1.4,0543.6,M,0.0,M,,0000*66
$GPGSV,3,1,09,20,45,000,36,32,45,030,31,11,45,060,42,17,45,090,38*71
$GPGSV,3,2,09,23,45,120,41,31,45,150,29,13,45,180,17,14,45,210,19*78
$GPGSV,3,3,09,04,45,240,0*73
$GPRMC,181032.000,A,4836.0580,N,00903.4970,E,059.33,136.59,091208,,,E*61
$RTDIST,A,3,2.4,1.4,2.0,4472*54
$GPGGA,181034.000,4836.0336,N,00903.5306,E,1,6,1.4,0544.4,M,0.0,M,,0000*64
$GPGSV,3,1,09,20,45,000,36,32,45,030,31,11,45,060,42,17,45,090,38*71
$GPGSV,3,2,09,23,45,120,31,31,45,150,24,13,45,180,17,14,45,210,22*7A
$GPGSV,3,3,09,04,45,240,0*73
$GPRMC,181034.000,A,4836.0336,N,00903.5306,E,059.71,136.84,091208,,,E*60
$RTDIST,A,3,2.4,1.4,2.0,4533*50
$GPGGA,181036.000,4836.0091,N,00903.5637,E,1,6,1.4,0545.5,M,0.0,M,,0000*6F
$GPGSV,3,1,09,20,45,000,35,32,45,030,32,11,45,060,42,17,45,090,34*7D
$GPGSV,3,2,09,23,45,120,33,31,45,150,23,13,45,180,23,14,45,210,16*7F
$GPGSV,3,3,09,04,45,240,0*73
$GPRMC,181036.000,A,4836.0091,N,00903.5637,E,059.37,137.85,091208,,,E*69
$RTDIST,A,3,2.4,1.4,2.0,4594*5D
$GPGGA,181038.000,4835.9839,N,00903.5957,E,1,6,1.4,0545.8,M,0.0,M,,0000*65
$GPGSV,3,1,09,20,45,000,35,32,45,030,32,11,45,060,42,17,45,090,33*7A
$GPGSV,3,2,09,23,45,120,39,31,45,150,24,13,45,180,26,14,45,210,18*79
$GPGSV,3,3,09,04,45,240,0*73
$GPRMC,181038.000,A,4835.9839,N,00903.5957,E,059.04,140.39,091208,,,E*69
$RTDIST,A,3,2.4,1.4,2.0,4655*53
$GPGGA,181040.000,4835.9571,N,00903.6242,E,1,6,1.4,0545.0,M,0.0,M,,0000*6F
$GPGSV,3,1,09,20,45,000,35,32,45,030,32,11,45,060,42,17,45,090,33*7A
$GPGSV,3,2,09,23,45,120,40,31,45,150,24,13,45,180,23,14,45,210,17*7D
$GPGSV,3,3,09,04,45,240,0*73
$GPRMC,181040.000,A,4835.9571,N,00903.6242,E,058.52,144.97,091208,,,E*69
$RTDIST,A,3,2.4,1.4,2.0,4715*56
$GPGGA,181042.000,4835.9303,N,00903.6517,E,1,6,1.4,0544.2,M,0.0,M,,0000*6A
$GPGSV,3,1,09,20,45,000,35,32,45,030,32,11,45,060,42,17,45,090,32*7B
$GPGSV,3,2,09,23,45,120,41,31,45,150,31,13,45,180,20,14,45,210,17*7B
$GPGSV,3,3,09,04,45,240,0*73
$GPRMC,181042.000,A,4835.9303,N,00903.6517,E,058.39,145.52,091208,,,E*6A
$RTDIST,A,3,2.4,1.4,2.0,4775*50
$GPGGA,181044.000,4835.9042,N,00903.6796,E,1,6,1.4,0542.8,M,0.0,M,,0000*6D
$GPGSV,3,1,09,20,45,000,36,32,45,030,32,11,45,060,42,17,45,090,33*79
$GPGSV,3,2,09,23,45,120,40,31,45,150,33,13,45,180,20,14,45,210,17*78
$GPGSV,3,3,09,04,45,240,0*73
$GPRMC,181044.000,A,4835.9042,N,00903.6796,E,056.30,143.18,091208,,,E*6E
$RTDIST,A,3,2.4,1.4,2.0,4835*5B
$GPGGA,181046.000,4835.8802,N,00903.7085,E,1,6,1.4,0541.7,M,0.0,M,,0000*6A
$GPGSV,3,1,09,20,45,000,36,32,45,030,28,11,45,060,42,17,45,090,33*72
$GPGSV,3,2,09,23,45,120,35,31,45,150,33,13,45,180,20,14,45,210,17*7A
$GPGSV,3,3,09,04,45,240,0*73
$GPRMC,181046.000,A,4835.8802,N,00903.7085,E,053.99,140.10,091208,,,E*68
$RTDIST,A,3,2.5,1.4,2.0,4891*54
$GPGGA,181048.000,4835.8582,N,00903.7374,E,1,6,1.4,0540.9,M,0.0,M,,0000*63
$GPGSV,3,1,09,20,45,000,36,32,45,030,28,11,45,060,41,17,45,090,33*71
$GPGSV,3,2,09,23,45,120,36,31,45,150,32,13,45,180,20,14,45,210,23*7F
$GPGSV,3,3,09,04,45,240,0*73
$GPRMC,181048.000,A,4835.8582,N,00903.7374,E,051.03,138.21,091208,,,E*62
$RTDIST,A,3,2.5,1.4,2.0,4945*5C
$GPGGA,181050.000,4835.8381,N,00903.7634,E,1,6,1.4,0541.1,M,0.0,M,,0000*67
$GPGSV,3,1,09,20,45,000,36,32,45,030,27,11,45,060,41,17,45,090,32*7F
$GPGSV,3,2,09,23,45,120,36,31,45,150,29,13,45,180,19,14,45,210,24*78
$GPGSV,3,3,09,04,45,240,0*73
$GPRMC,181050.000,A,4835.8381,N,00903.7634,E,046.70,138.73,091208,,,E*6A
$RTDIST,A,3,2.5,1.4,2.0,4994*50
$GPGGA,181052.000,4835.8195,N,00903.7886,E,1,5,2.7,0540.4,M,0.0,M,,0000*62
$GPGSV,3,1,09,20,45,000,36,32,45,030,27,11,45,060,41,17,45,090,0*4E
$GPGSV,3,2,09,23,45,120,36,31,45,150,30,13,45,180,19,14,45,210,24*70
$GPGSV,3,3,09,04,45,240,0*73
$GPRMC,181052.000,A,4835.8195,N,00903.7886,E,044.56,137.59,091208,,,E*69
$RTDIST,A,3,4.3,2.7,3.3,5041*52
$GPGGA,181054.000,4835.8017,N,00903.8123,E,1,6,1.4,0540.1,M,0.0,M,,0000*60
$GPGSV,3,1,09,20,45,000,36,32,45,030,27,11,45,060,41,17,45,090,34*79
$GPGSV,3,2,09,23,45,120,36,31,45,150,30,13,45,180,19,14,45,210,27*73
$GPGSV,3,3,09,04,45,240,0*73
$GPRMC,181054.000,A,4835.8017,N,00903.8123,E,041.83,138.55,091208,,,E*63
$RTDIST,A,3,2.5,1.4,2.0,5085*58
$GPGGA,181056.000,4835.7852,N,00903.8347,E,1,6,1.4,0541.4,M,0.0,M,,0000*60
$GPGSV,3,1,09,20,45,000,36,32,45,030,27,11,45,060,41,17,45,090,33*7E
$GPGSV,3,2,09,23,45,120,34,31,45,150,26,13,45,180,20,14,45,210,19*71
$GPGSV,3,3,09,04,45,240,0*73
$GPRMC,181056.000,A,4835.7852,N,00903.8347,E,039.88,138.05,091208,,,E*66
$RTDIST,A,3,2.5,1.4,2.0,5126*50
$GPGGA,181058.000,4835.7694,N,00903.8579,E,1,5,2.7,0542.4,M,0.0,M,,0000*61
$GPGSV,3,1,09,20,45,000,36,32,45,030,25,11,45,060,41,17,45,090,0*4C
$GPGSV,3,2,09,23,45,120,31,31,45,150,25,13,45,180,25,14,45,210,14*7F
$GPGSV,3,3,09,04,45,240,0*73
$GPRMC,181058.000,A,4835.7694,N,00903.8579,E,040.06,134.33,091208,,,E*66
$RTDIST,A,3,4.3,2.7,3.3,5166*56
$GPGGA,181100.000,4835.7552,N,00903.8822,E,1,6,1.4,0543.5,M,0.0,M,,0000*64
$GPGSV,3,1,09,20,45,000,36,32,45,030,22,11,45,060,41,17,45,090,35*7D
$GPGSV,3,2,09,23,45,120,42,31,45,150,25,13,45,180,16,14,45,210,24*78
$GPGSV,3,3,09,04,45,240,0*73
$GPRMC,181100.000,A,4835.7552,N,00903.8822,E,039.07,129.79,091208,,,E*6D
$RTDIST,A,3,2.5,1.4,2.0,5206*51
$GPGGA,181102.000,4835.7447,N,00903.9122,E,1,6,1.4,0541.3,M,0.0,M,,0000*6F
$GPGSV,3,1,09,20,45,000,36,32,45,030,21,11,45,060,41,17,45,090,38*73
$GPGSV,3,2,09,23,45,120,43,31,45,150,30,13,45,180,20,14,45,210,25*79
$GPGSV,3,3,09,04,45,240,0*73
$GPRMC,181102.000,A,4835.7447,N,00903.9122,E,040.91,118.33,091208,,,E*6F
$RTDIST,A,3,2.5,1.4,2.0,5248*5B
$GPGGA,181104.000,4835.7349,N,00903.9435,E,1,6,1.4,0537.9,M,0.0,M,,0000*68
$GPGSV,3,1,09,20,45,000,36,32,45,030,22,11,45,060,41,17,45,090,39*71
$GPGSV,3,2,09,23,45,120,44,31,45,150,29,13,45,180,0,14,45,210,16*44
$GPGSV,3,3,09,04,45,240,0*73
$GPRMC,181104.000,A,4835.7349,N,00903.9435,E,041.27,117.83,091208,,,E*6B
$RTDIST,A,3,2.5,1.4,2.0,5290*5E
$GPGGA,181106.000,4835.7248,N,00903.9749,E,1,6,1.4,0534.4,M,0.0,M,,0000*6C
$GPGSV,3,1,09,20,45,000,28,32,45,030,22,11,45,060,42,17,45,090,39*7D
$GPGSV,3,2,09,23,45,120,45,31,45,150,29,13,45,180,24,14,45,210,0*44
$GPGSV,3,3,09,04,45,240,0*73
$GPRMC,181106.000,A,4835.7248,N,00903.9749,E,041.69,117.04,091208,,,E*64
$RTDIST,A,3,2.5,1.4,2.0,5333*56
$GPGGA,181108.000,4835.7147,N,00904.0065,E,1,6,1.4,0532.6,M,0.0,M,,0000*6D
$GPGSV,3,1,09,20,45,000,30,32,45,030,23,11,45,060,42,17,45,090,39*75
$GPGSV,3,2,09,23,45,120,45,31,45,150,29,13,45,180,24,14,45,210,25*73
$GPGSV,3,3,09,04,45,240,0*73
$GPRMC,181108.000,A,4835.7147,N,00904.0065,E,042.34,116.67,091208,,,E*6E
$RTDIST,A,3,2.5,1.4,2.0,5376*57
$GPGGA,181110.000,4835.7044,N,00904.0395,E,1,6,1.4,0529.9,M,0.0,M,,0000*6F
$GPGSV,3,1,09,20,45,000,26,32,45,030,28,11,45,060,42,17,45,090,40*77
$GPGSV,3,2,09,23,45,120,45,31,45,150,29,13,45,180,24,14,45,210,25*73
$GPGSV,3,3,09,04,45,240,0*73
$GPRMC,181110.000,A,4835.7044,N,00904.0395,E,043.99,116.85,091208,,,E*63
$RTDIST,A,3,2.5,1.4,2.0,5421*52
$GPGGA,181112.000,4835.6934,N,00904.0740,E,1,5,3.0,0528.7,M,0.0,M,,0000*64
$GPGSV,3,1,09,20,45,000,24,32,45,030,27,11,45,060,42,17,45,090,40*7A
$GPGSV,3,2,09,23,45,120,45,31,45,150,0,13,45,180,24,14,45,210,18*46
$GPGSV,3,3,09,04,45,240,0*73
$GPRMC,181112.000,A,4835.6934,N,00904.0740,E,046.68,116.06,091208,,,E*62
$RTDIST,A,3,6.4,3.0,5.6,5468*5D
$GPGGA,181114.000,4835.6822,N,00904.1093,E,1,6,1.4,0525.9,M,0.0,M,,0000*6A
$GPGSV,3,1,09,20,45,000,24,32,45,030,27,11,45,060,41,17,45,090,41*78
$GPGSV,3,2,09,23,45,120,42,31,45,150,30,13,45,180,18,14,45,210,20*76
$GPGSV,3,3,09,04,45,240,0*73
$GPRMC,181114.000,A,4835.6822,N,00904.1093,E,045.99,116.65,091208,,,E*62
$RTDIST,A,3,2.5,1.4,2.0,5516*57
$GPGGA,181116.000,4835.6712,N,00904.1428,E,1,6,1.4,0523.6,M,0.0,M,,0000*69
$GPGSV,3,1,09,20,45,000,24,32,45,030,27,11,45,060,39,17,45,090,42*74
$GPGSV,3,2,09,23,45,120,41,31,45,150,30,13,45,180,18,14,45,210,21*74
$GPGSV,3,3,09,04,45,240,0*73
$GPRMC,181116.000,A,4835.6712,N,00904.1428,E,042.09,115.27,091208,,,E*63
$RTDIST,A,3,2.5,1.4,2.0,5561*57
$GPGGA,181118.000,4835.6616,N,00904.1688,E,1,6,1.4,0525.3,M,0.0,M,,0000*69
$GPGSV,3,1,09,20,45,000,24,32,45,030,27,11,45,060,40,17,45,090,42*7A
$GPGSV,3,2,09,23,45,120,40,31,45,150,29,13,45,180,18,14,45,210,21*7D
$GPGSV,3,3,09,04,45,240,0*73
$GPRMC,181118.000,A,4835.6616,N,00904.1688,E,033.04,115.62,091208,,,E*6A
$RTDIST,A,3,2.5,1.4,2.0,5598*51
$GPGGA,181120.000,4835.6550,N,00904.1846,E,1,6,1.4,0527.8,M,0.0,M,,0000*66
$GPGSV,3,1,09,20,45,000,24,32,45,030,27,11,45,060,41,17,45,090,42*7B
$GPGSV,3,2,09,23,45,120,41,31,45,150,29,13,45,180,18,14,45,210,15*7B
$GPGSV,3,3,09,04,45,240,0*73
$GPRMC,181120.000,A,4835.6550,N,00904.1846,E,021.56,115.39,091208,,,E*66
$RTDIST,A,3,2.5,1.4,2.1,5621*51
$GPGGA,181122.000,4835.6516,N,00904.1931,E,1,6,1.4,0529.2,M,0.0,M,,0000*63
$GPGSV,3,1,09,20,45,000,24,32,45,030,28,11,45,060,42,17,45,090,42*77
$GPGSV,3,2,09,23,45,120,34,31,45,150,29,13,45,180,18,14,45,210,18*74
$GPGSV,3,3,09,04,45,240,0*73
$GPRMC,181122.000,A,4835.6516,N,00904.1931,E,011.57,115.84,091208,,,E*63
$RTDIST,A,3,2.5,1.4,2.1,5633*52
$GPGGA,181124.000,4835.6488,N,00904.1980,E,1,5,3.0,0526.0,M,0.0,M,,0000*61
$GPGSV,3,1,09,20,45,000,24,32,45,030,28,11,45,060,42,17,45,090,42*77
$GPGSV,3,2,09,23,45,120,35,31,45,150,0,13,45,180,18,14,45,210,19*4F
$GPGSV,3,3,09,04,45,240,0*73
$GPRMC,181124.000,A,4835.6488,N,00904.1980,E,009.67,117.54,091208,,,E*6C
$RTDIST,A,3,6.4,3.0,5.7,5641*55
$GPGGA,181126.000,4835.6472,N,00904.2080,E,1,5,1.5,0526.1,M,0.0,M,,0000*6A
$GPGSV,3,1,09,20,45,000,32,32,45,030,0,11,45,060,42,17,45,090,42*4A
$GPGSV,3,2,09,23,45,120,40,31,45,150,25,13,45,180,19,14,45,210,19*7B
$GPGSV,3,3,09,04,45,240,0*73
$GPRMC,181126.000,A,4835.6472,N,00904.2080,E,015.55,103.88,091208,,,E*69
$RTDIST,A,3,2.9,1.5,2.5,5654*5A
$GPGGA,181128.000,4835.6456,N,00904.2236,E,1,5,3.0,0527.1,M,0.0,M,,0000*6B
$GPGSV,3,1,09,20,45,000,33,32,45,030,30,11,45,060,34,17,45,090,42*79
$GPGSV,3,2,09,23,45,120,31,31,45,150,0,13,45,180,19,14,45,210,19*4A
$GPGSV,3,3,09,04,45,240,0*73
$GPRMC,181128.000,A,4835.6456,N,00904.2236,E,020.41,101.10,091208,,,E*6E
$RTDIST,A,3,6.4,3.0,5.7,5673*54
$GPGGA,181130.000,4835.6424,N,00904.2434,E,1,6,1.4,0528.2,M,0.0,M,,0000*6A
$GPGSV,3,1,09,20,45,000,33,32,45,030,28,11,45,060,34,17,45,090,41*73
$GPGSV,3,2,09,23,45,120,41,31,45,150,28,13,45,180,20,14,45,210,20*77
$GPGSV,3,3,09,04,45,240,0*73
$GPRMC,181130.000,A,4835.6424,N,00904.2434,E,025.91,106.87,091208,,,E*67
$RTDIST,A,3,2.5,1.4,2.1,5698*53
$GPGGA,181132.000,4835.6364,N,00904.2653,E,1,5,3.0,0529.0,M,0.0,M,,0000*6E
$GPGSV,3,1,09,20,45,000,32,32,45,030,24,11,45,060,34,17,45,090,41*7E
$GPGSV,3,2,09,23,45,120,40,31,45,150,0,13,45,180,25,14,45,210,20*49
$GPGSV,3,3,09,04,45,240,0*73
$GPRMC,181132.000,A,4835.6364,N,00904.2653,E,030.02,110.71,091208,,,E*65
$RTDIST,A,3,6.4,3.0,5.7,5727*54
$GPGGA,181134.000,4835.6300,N,00904.2931,E,1,6,1.4,0529.5,M,0.0,M,,0000*61
$GPGSV,3,1,09,20,45,000,32,32,45,030,24,11,45,060,34,17,45,090,40*7F
$GPGSV,3,2,09,23,45,120,39,31,45,150,32,13,45,180,24,14,45,210,20*77
$GPGSV,3,3,09,04,45,240,0*73
$GPRMC,181134.000,A,4835.6300,N,00904.2931,E,035.67,108.60,091208,,,E*65
$RTDIST,A,3,2.5,1.4,2.1,5763*56
$GPGGA,181136.000,4835.6241,N,00904.3235,E,1,6,1.4,0529.3,M,0.0,M,,0000*6F
$GPGSV,3,1,09,20,45,000,32,32,45,030,24,11,45,060,36,17,45,090,40*7D
$GPGSV,3,2,09,23,45,120,39,31,45,150,31,13,45,180,24,14,45,210,20*74
$GPGSV,3,3,09,04,45,240,0*73
$GPRMC,181136.000,A,4835.6241,N,00904.3235,E,036.14,108.87,091208,,,E*63
$RTDIST,A,3,2.5,1.4,2.1,5802*5E
$GPGGA,181138.000,4835.6177,N,00904.3522,E,1,6,1.4,0529.7,M,0.0,M,,0000*62
$GPGSV,3,1,09,20,45,000,31,32,45,030,24,11,45,060,37,17,45,090,40*7F
$GPGSV,3,2,09,23,45,120,39,31,45,150,31,13,45,180,25,14,45,210,20*75
$GPGSV,3,3,09,04,45,240,0*73
$GPRMC,181138.000,A,4835.6177,N,00904.3522,E,034.76,109.34,091208,,,E*65
$RTDIST,A,3,2.5,1.4,2.1,5839*56
$GPGGA,181140.000,4835.6117,N,00904.3791,E,1,6,1.4,0531.1,M,0.0,M,,0000*6E
$GPGSV,3,1,09,20,45,000,31,32,45,030,24,11,45,060,37,17,45,090,40*7F
$GPGSV,3,2,09,23,45,120,40,31,45,150,31,13,45,180,25,14,45,210,20*7B
$GPGSV,3,3,09,04,45,240,0*73
$GPRMC,181140.000,A,4835.6117,N,00904.3791,E,031.99,109.53,091208,,,E*63
$RTDIST,A,3,2.5,1.4,2.1,5874*5F
$GPGGA,181142.000,4835.6062,N,00904.4043,E,1,6,1.4,0532.1,M,0.0,M,,0000*63
$GPGSV,3,1,09,20,45,000,31,32,45,030,25,11,45,060,37,17,45,090,40*7E
$GPGSV,3,2,09,23,45,120,40,31,45,150,31,13,45,180,25,14,45,210,21*7A
$GPGSV,3,3,09,04,45,240,0*73
$GPRMC,181142.000,A,4835.6062,N,00904.4043,E,029.57,109.30,091208,,,E*63
$RTDIST,A,3,2.5,1.4,2.1,5906*5B
$GPGGA,181144.000,4835.6007,N,00904.4256,E,1,6,1.4,0532.8,M,0.0,M,,0000*69
$GPGSV,3,1,09,20,45,000,24,32,45,030,29,11,45,060,38,17,45,090,40*79
$GPGSV,3,2,09,23,45,120,41,31,45,150,31,13,45,180,25,14,45,210,21*7B
$GPGSV,3,3,09,04,45,240,0*73
$GPRMC,181144.000,A,4835.6007,N,00904.4256,E,024.46,114.02,091208,,,E*60
$RTDIST,A,3,2.5,1.4,2.1,5935*5B
$GPGGA,181146.000,4835.5941,N,00904.4406,E,1,6,1.4,0533.1,M,0.0,M,,0000*68
$GPGSV,3,1,09,20,45,000,34,32,45,030,30,11,45,060,43,17,45,090,32*79
$GPGSV,3,2,09,23,45,120,36,31,45,150,26,13,45,180,25,14,45,210,21*7D
$GPGSV,3,3,09,04,45,240,0*73
$GPRMC,181146.000,A,4835.5941,N,00904.4406,E,019.95,121.64,091208,,,E*6F
$RTDIST,A,3,2.5,1.4,2.1,5957*5F
$GPGGA,181148.000,4835.5865,N,00904.4481,E,1,5,2.7,0535.4,M,0.0,M,,0000*6E
$GPGSV,3,1,09,20,45,000,35,32,45,030,37,11,45,060,39,17,45,090,0*43
$GPGSV,3,2,09,23,45,120,44,31,45,150,27,13,45,180,28,14,45,210,21*74
$GPGSV,3,3,09,04,45,240,0*73
$GPRMC,181148.000,A,4835.5865,N,00904.4481,E,014.84,142.21,091208,,,E*60
$RTDIST,A,3,4.3,2.7,3.3,5973*5A
$GPGGA,181150.000,4835.5831,N,00904.4492,E,1,6,1.4,0535.2,M,0.0,M,,0000*61
$GPGSV,3,1,09,20,45,000,34,32,45,030,38,11,45,060,26,17,45,090,34*74
$GPGSV,3,2,09,23,45,120,43,31,45,150,37,13,45,180,33,14,45,210,21*78
$GPGSV,3,3,09,04,45,240,0*73
$GPRMC,181150.000,A,4835.5831,N,00904.4492,E,005.64,155.24,091208,,,E*67
$RTDIST,A,3,2.5,1.4,2.1,5980*55
$GPGGA,181152.000,4835.5811,N,00904.4486,E,1,6,1.4,0532.0,M,0.0,M,,0000*61
$GPGSV,3,1,09,20,45,000,34,32,45,030,29,11,45,060,27,17,45,090,34*75
$GPGSV,3,2,09,23,45,120,43,31,45,150,38,13,45,180,34,14,45,210,20*71
$GPGSV,3,3,09,04,45,240,0*73
$GPRMC,181152.000,A,4835.5811,N,00904.4486,E,008.00,167.41,091208,,,E*6F
$RTDIST,A,3,2.5,1.4,2.1,5985*50
$GPGGA,181154.000,4835.5744,N,00904.4508,E,1,5,1.5,0531.4,M,0.0,M,,0000*6A
$GPGSV,3,1,09,20,45,000,29,32,45,030,0,11,45,060,32,17,45,090,35*47
$GPGSV,3,2,09,23,45,120,35,31,45,150,38,13,45,180,29,14,45,210,20*7C
$GPGSV,3,3,09,04,45,240,0*73
$GPRMC,181154.000,A,4835.5744,N,00904.4508,E,014.86,170.73,091208,,,E*65
$RTDIST,A,3,2.9,1.5,2.5,5997*5A
$GPGGA,181156.000,4835.5627,N,00904.4541,E,1,6,1.4,0532.5,M,0.0,M,,0000*61
$GPGSV,3,1,09,20,45,000,25,32,45,030,29,11,45,060,35,17,45,090,41*74
$GPGSV,3,2,09,23,45,120,36,31,45,150,36,13,45,180,31,14,45,210,20*78
$GPGSV,3,3,09,04,45,240,0*73
$GPRMC,181156.000,A,4835.5627,N,00904.4541,E,021.96,172.78,091208,,,E*60
$RTDIST,A,3,2.5,1.4,2.1,6019*5F
$GPGGA,181158.000,4835.5490,N,00904.4567,E,1,6,1.4,0533.5,M,0.0,M,,0000*64
$GPGSV,3,1,09,20,45,000,26,32,45,030,30,11,45,060,35,17,45,090,34*7D
$GPGSV,3,2,09,23,45,120,35,31,45,150,31,13,45,180,31,14,45,210,20*7C
$GPGSV,3,3,09,04,45,240,0*73
$GPRMC,181158.000,A,4835.5490,N,00904.4567,E,026.61,174.54,091208,,,E*63
$RTDIST,A,3,2.5,1.4,2.1,6045*56
$GPGGA,181200.000,4835.5323,N,00904.4584,E,1,6,1.4,0535.5,M,0.0,M,,0000*6E
$GPGSV,3,1,09,20,45,000,26,32,45,030,31,11,45,060,35,17,45,090,38*70
$GPGSV,3,2,09,23,45,120,44,31,45,150,31,13,45,180,31,14,45,210,20*7A
$GPGSV,3,3,09,04,45,240,0*73
$GPRMC,181200.000,A,4835.5323,N,00904.4584,E,032.01,176.13,091208,,,E*6D
$RTDIST,A,3,2.5,1.4,2.1,6076*56
$GPGGA,181202.000,4835.5133,N,00904.4608,E,1,6,1.4,0539.0,M,0.0,M,,0000*61
$GPGSV,3,1,09,20,45,000,26,32,45,030,31,11,45,060,35,17,45,090,38*70
$GPGSV,3,2,09,23,45,120,43,31,45,150,30,13,45,180,31,14,45,210,19*76
$GPGSV,3,3,09,04,45,240,0*73
$GPRMC,181202.000,A,4835.5133,N,00904.4608,E,033.81,173.10,091208,,,E*64
$RTDIST,A,3,2.5,1.4,2.1,6111*56
$GPGGA,181204.000,4835.4941,N,00904.4666,E,1,6,1.4,0542.2,M,0.0,M,,0000*6D
$GPGSV,3,1,09,20,45,000,26,32,45,030,29,11,45,060,35,17,45,090,37*76
$GPGSV,3,2,09,23,45,120,43,31,45,150,30,13,45,180,32,14,45,210,14*78
$GPGSV,3,3,09,04,45,240,0*73
$GPRMC,181204.000,A,4835.4941,N,00904.4666,E,034.94,164.76,091208,,,E*63
$RTDIST,A,3,2.5,1.4,2.1,6148*5A
$GPGGA,181206.000,4835.4746,N,00904.4773,E,1,6,1.4,0542.9,M,0.0,M,,0000*68
$GPGSV,3,1,09,20,45,000,26,32,45,030,33,11,45,060,35,17,45,090,33*79
$GPGSV,3,2,09,23,45,120,43,31,45,150,27,13,45,180,31,14,45,210,12*7B
$GPGSV,3,3,09,04,45,240,0*73
$GPRMC,181206.000,A,4835.4746,N,00904.4773,E,037.07,156.87,091208,,,E*6B
$RTDIST,A,3,2.5,1.4,2.1,6186*58
$GPGGA,181208.000,4835.4552,N,00904.4938,E,1,6,1.4,0544.8,M,0.0,M,,0000*67
$GPGSV,3,1,09,20,45,000,26,32,45,030,33,11,45,060,43,17,45,090,32*79
$GPGSV,3,2,09,23,45,120,42,31,45,150,26,13,45,180,26,14,45,210,11*7E
$GPGSV,3,3,09,04,45,240,0*73
$GPRMC,181208.000,A,4835.4552,N,00904.4938,E,039.86,148.00,091208,,,E*64
$RTDIST,A,3,2.5,1.4,2.1,6228*5F
$GPGGA,181210.000,4835.4369,N,00904.5168,E,1,6,1.4,0546.0,M,0.0,M,,0000*66
$GPGSV,3,1,09,20,45,000,27,32,45,030,32,11,45,060,43,17,45,090,39*72
$GPGSV,3,2,09,23,45,120,40,31,45,150,27,13,45,180,24,14,45,210,0*4F
$GPGSV,3,3,09,04,45,240,0*73
$GPRMC,181210.000,A,4835.4369,N,00904.5168,E,042.42,137.47,091208,,,E*60
$RTDIST,A,3,2.5,1.4,2.1,6271*53
$GPGGA,181212.000,4835.4208,N,00904.5448,E,1,6,1.4,0547.6,M,0.0,M,,0000*62
$GPGSV,3,1,09,20,45,000,27,32,45,030,32,11,45,060,43,17,45,090,38*73
$GPGSV,3,2,09,23,45,120,37,31,45,150,27,13,45,180,23,14,45,210,0*48
$GPGSV,3,3,09,04,45,240,0*73
$GPRMC,181212.000,A,4835.4208,N,00904.5448,E,044.46,129.31,091208,,,E*6F
$RTDIST,A,3,2.5,1.4,2.1,6317*52
$GPGGA,181214.000,4835.4094,N,00904.5799,E,1,6,1.4,0546.4,M,0.0,M,,0000*6F
$GPGSV,3,1,09,20,45,000,27,32,45,030,33,11,45,060,43,17,45,090,39*73
$GPGSV,3,2,09,23,45,120,44,31,45,150,27,13,45,180,23,14,45,210,0*4C
$GPGSV,3,3,09,04,45,240,0*73
$GPRMC,181214.000,A,4835.4094,N,00904.5799,E,045.26,114.78,091208,,,E*65
$RTDIST,A,3,2.5,1.4,2.1,6365*57
$GPGGA,181216.000,4835.4016,N,00904.6177,E,1,6,1.4,0545.8,M,0.0,M,,0000*6D
$GPGSV,3,1,09,20,45,000,27,32,45,030,33,11,45,060,39,17,45,090,39*7E
$GPGSV,3,2,09,23,45,120,43,31,45,150,34,13,45,180,23,14,45,210,0*49
$GPGSV,3,3,09,04,45,240,0*73
$GPRMC,181216.000,A,4835.4016,N,00904.6177,E,046.89,104.29,091208,,,E*6B
$RTDIST,A,3,2.5,1.4,2.1,6414*56
$GPGGA,181218.000,4835.3984,N,00904.6580,E,1,6,1.4,0545.8,M,0.0,M,,0000*6A
$GPGSV,3,1,09,20,45,000,26,32,45,030,34,11,45,060,37,17,45,090,39*76
$GPGSV,3,2,09,23,45,120,36,31,45,150,36,13,45,180,24,14,45,210,0*4E
$GPGSV,3,3,09,04,45,240,0*73
$GPRMC,181218.000,A,4835.3984,N,00904.6580,E,048.45,94.57,091208,,,E*53
$RTDIST,A,3,2.5,1.4,2.1,6463*56
$GPGGA,181220.000,4835.3982,N,00904.6999,E,1,5,1.4,0545.8,M,0.0,M,,0000*60
$GPGSV,3,1,09,20,45,000,19,32,45,030,35,11,45,060,38,17,45,090,39*74
$GPGSV,3,2,09,23,45,120,43,31,45,150,38,13,45,180,24,14,45,210,0*42
$GPGSV,3,3,09,04,45,240,0*73
$GPRMC,181220.000,A,4835.3982,N,00904.6999,E,049.96,88.49,091208,,,E*57
$RTDIST,A,3,2.7,1.4,2.4,6515*51
$GPGGA,181222.000,4835.4009,N,00904.7429,E,1,5,1.4,0547.5,M,0.0,M,,0000*67
$GPGSV,3,1,09,20,45,000,0,32,45,030,35,11,45,060,39,17,45,090,39*4D
$GPGSV,3,2,09,23,45,120,43,31,45,150,39,13,45,180,33,14,45,210,0*45
$GPGSV,3,3,09,04,45,240,0*73
$GPRMC,181222.000,A,4835.4009,N,00904.7429,E,051.62,83.61,091208,,,E*5C
$RTDIST,A,3,2.7,1.4,2.4,6568*5B
$GPGGA,181224.000,4835.4050,N,00904.7869,E,1,6,1.4,0549.1,M,0.0,M,,0000*6C
$GPGSV,3,1,09,20,45,000,24,32,45,030,36,11,45,060,39,17,45,090,38*79
$GPGSV,3,2,09,23,45,120,43,31,45,150,40,13,45,180,31,14,45,210,0*49
$GPGSV,3,3,09,04,45,240,0*73
$GPRMC,181224.000,A,4835.4050,N,00904.7869,E,053.15,82.42,091208,,,E*5C
$RTDIST,A,3,2.5,1.4,2.1,6622*51
$GPGGA,181226.000,4835.4092,N,00904.8320,E,1,6,1.4,0550.5,M,0.0,M,,0000*65
$GPGSV,3,1,09,20,45,000,21,32,45,030,36,11,45,060,39,17,45,090,32*76
$GPGSV,3,2,09,23,45,120,43,31,45,150,40,13,45,180,27,14,45,210,0*4E
$GPGSV,3,3,09,04,45,240,0*73
$GPRMC,181226.000,A,4835.4092,N,00904.8320,E,054.58,81.77,091208,,,E*52
$RTDIST,A,3,2.5,1.4,2.1,6678*5E
$GPGGA,181228.000,4835.4135,N,00904.8783,E,1,6,1.4,0551.6,M,0.0,M,,0000*68
$GPGSV,3,1,09,20,45,000,21,32,45,030,36,11,45,060,39,17,45,090,32*76
$GPGSV,3,2,09,23,45,120,42,31,45,150,40,13,45,180,26,14,45,210,0*4E
$GPGSV,3,3,09,04,45,240,0*73
$GPRMC,181228.000,A,4835.4135,N,00904.8783,E,056.22,83.25,091208,,,E*57
$RTDIST,A,3,2.5,1.4,2.1,6735*56
$GPGGA,181230.000,4835.4174,N,00904.9252,E,1,6,1.4,0552.3,M,0.0,M,,0000*6A
$GPGSV,3,1,09,20,45,000,20,32,45,030,36,11,45,060,39,17,45,090,32*77
$GPGSV,3,2,09,23,45,120,42,31,45,150,40,13,45,180,24,14,45,210,0*4C
$GPGSV,3,3,09,04,45,240,0*73
$GPRMC,181230.000,A,4835.4174,N,00904.9252,E,056.61,83.28,091208,,,E*59
$RTDIST,A,3,2.5,1.4,2.1,6793*5A
$GPGGA,181232.000,4835.4208,N,00904.9729,E,1,6,1.4,0553.5,M,0.0,M,,0000*6E
$GPGSV,3,1,09,20,45,000,20,32,45,030,36,11,45,060,39,17,45,090,27*73
$GPGSV,3,2,09,23,45,120,42,31,45,150,40,13,45,180,24,14,45,210,0*4C
$GPGSV,3,3,09,04,45,240,0*73
$GPRMC,181232.000,A,4835.4208,N,00904.9729,E,056.69,85.83,091208,,,E*55
$RTDIST,A,3,2.5,1.4,2.1,6852*58
$GPGGA,181234.000,4835.4215,N,00905.0201,E,1,6,1.4,0554.3,M,0.0,M,,0000*62
$GPGSV,3,1,09,20,45,000,28,32,45,030,36,11,45,060,32,17,45,090,37*71
$GPGSV,3,2,09,23,45,120,41,31,45,150,40,13,45,180,24,14,45,210,0*4F
$GPGSV,3,3,09,04,45,240,0*73
$GPRMC,181234.000,A,4835.4215,N,00905.0201,E,055.25,89.79,091208,,,E*5A
$RTDIST,A,3,2.5,1.4,2.1,6909*57
$GPGGA,181236.000,4835.4206,N,00905.0659,E,1,6,1.4,0554.8,M,0.0,M,,0000*60
$GPGSV,3,1,09,20,45,000,28,32,45,030,36,11,45,060,31,17,45,090,37*72
$GPGSV,3,2,09,23,45,120,40,31,45,150,37,13,45,180,23,14,45,210,0*49
$GPGSV,3,3,09,04,45,240,0*73
$GPRMC,181236.000,A,4835.4206,N,00905.0659,E,054.10,92.53,091208,,,E*56
$RTDIST,A,3,2.5,1.4,2.1,6966*5E
$GPGGA,181238.000,4835.4192,N,00905.1112,E,1,6,1.4,0554.9,M,0.0,M,,0000*68
$GPGSV,3,1,09,20,45,000,29,32,45,030,36,11,45,060,32,17,45,090,37*70
$GPGSV,3,2,09,23,45,120,40,31,45,150,38,13,45,180,25,14,45,210,0*40
$GPGSV,3,3,09,04,45,240,0*73
$GPRMC,181238.000,A,4835.4192,N,00905.1112,E,054.07,92.06,091208,,,E*59
$RTDIST,A,3,2.5,1.4,2.1,7021*55
$GPGGA,181240.000,4835.4183,N,00905.1566,E,1,6,1.4,0555.0,M,0.0,M,,0000*68
$GPGSV,3,1,09,20,45,000,29,32,45,030,36,11,45,060,32,17,45,090,37*70
$GPGSV,3,2,09,23,45,120,41,31,45,150,39,13,45,180,31,14,45,210,0*45
$GPGSV,3,3,09,04,45,240,0*73
$GPRMC,181240.000,A,4835.4183,N,00905.1566,E,054.27,91.84,091208,,,E*5A
$RTDIST,A,3,2.5,1.4,2.1,7077*56
$GPGGA,181242.000,4835.4169,N,00905.2021,E,1,6,1.4,0554.9,M,0.0,M,,0000*63
$GPGSV,3,1,09,20,45,000,29,32,45,030,36,11,45,060,32,17,45,090,36*71
$GPGSV,3,2,09,23,45,120,42,31,45,150,39,13,45,180,25,14,45,210,0*43
$GPGSV,3,3,09,04,45,240,0*73
$GPRMC,181242.000,A,4835.4169,N,00905.2021,E,054.66,92.41,091208,,,E*56
$RTDIST,A,3,2.5,1.4,2.1,7133*57
$GPGGA,181244.000,4835.4158,N,00905.2483,E,1,6,1.4,0554.5,M,0.0,M,,0000*67
$GPGSV,3,1,09,20,45,000,29,32,45,030,36,11,45,060,32,17,45,090,36*71
$GPGSV,3,2,09,23,45,120,41,31,45,150,40,13,45,180,24,14,45,210,13*7D
$GPGSV,3,3,09,04,45,240,0*73
$GPRMC,181244.000,A,4835.4158,N,00905.2483,E,055.45,92.20,091208,,,E*59
$RTDIST,A,3,2.5,1.4,2.1,7189*56
$GPGGA,181246.000,4835.4149,N,00905.2946,E,1,6,1.4,0554.1,M,0.0,M,,0000*65
$GPGSV,3,1,09,20,45,000,30,32,45,030,36,11,45,060,31,17,45,090,36*7A
$GPGSV,3,2,09,23,45,120,41,31,45,150,40,13,45,180,24,14,45,210,13*7D
$GPGSV,3,3,09,04,45,240,0*73
$GPRMC,181246.000,A,4835.4149,N,00905.2946,E,055.32,92.11,091208,,,E*5D
$RTDIST,A,3,2.5,1.4,2.1,7246*56
$GPGGA,181248.000,4835.4128,N,00905.3406,E,1,6,1.4,0553.5,M,0.0,M,,0000*67
$GPGSV,3,1,09,20,45,000,30,32,45,030,36,11,45,060,32,17,45,090,36*79
$GPGSV,3,2,09,23,45,120,35,31,45,150,39,13,45,180,24,14,45,210,13*70
$GPGSV,3,3,09,04,45,240,0*73
$GPRMC,181248.000,A,4835.4128,N,00905.3406,E,054.48,94.52,091208,,,E*51
$RTDIST,A,3,2.5,1.4,2.1,7302*57
$GPGGA,181250.000,4835.4092,N,00905.3854,E,1,6,1.4,0553.0,M,0.0,M,,0000*60
$GPGSV,3,1,09,20,45,000,30,32,45,030,31,11,45,060,32,17,45,090,36*7E
$GPGSV,3,2,09,23,45,120,34,31,45,150,34,13,45,180,24,14,45,210,12*7D
$GPGSV,3,3,09,04,45,240,0*73
$GPRMC,181250.000,A,4835.4092,N,00905.3854,E,053.40,98.62,091208,,,E*53
$RTDIST,A,3,2.5,1.4,2.1,7358*58
$GPGGA,181252.000,4835.4032,N,00905.4292,E,1,6,1.4,0552.4,M,0.0,M,,0000*6A
$GPGSV,3,1,09,20,45,000,31,32,45,030,32,11,45,060,34,17,45,090,37*7B
$GPGSV,3,2,09,23,45,120,34,31,45,150,34,13,45,180,24,14,45,210,0*4E
$GPGSV,3,3,09,04,45,240,0*73
$GPRMC,181252.000,A,4835.4032,N,00905.4292,E,053.32,101.64,091208,,,E*6E
$RTDIST,A,3,2.5,1.4,2.1,7413*50
$GPGGA,181254.000,4835.3970,N,00905.4730,E,1,6,1.4,0552.2,M,0.0,M,,0000*6F
$GPGSV,3,1,09,20,45,000,31,32,45,030,32,11,45,060,35,17,45,090,37*7A
$GPGSV,3,2,09,23,45,120,33,31,45,150,35,13,45,180,24,14,45,210,0*48
$GPGSV,3,3,09,04,45,240,0*73
$GPRMC,181254.000,A,4835.3970,N,00905.4730,E,053.23,102.08,091208,,,E*64
$RTDIST,A,3,2.5,1.4,2.1,7467*53
$GPGGA,181256.000,4835.3902,N,00905.5161,E,1,6,1.4,0552.8,M,0.0,M,,0000*61
$GPGSV,3,1,09,20,45,000,31,32,45,030,32,11,45,060,34,17,45,090,37*7B
$GPGSV,3,2,09,23,45,120,33,31,45,150,36,13,45,180,24,14,45,210,0*4B
$GPGSV,3,3,09,04,45,240,0*73
$GPRMC,181256.000,A,4835.3902,N,00905.5161,E,052.09,101.83,091208,,,E*69
$RTDIST,A,3,2.5,1.4,2.1,7522*53
$GPGGA,181258.000,4835.3847,N,00905.5583,E,1,6,1.4,0552.5,M,0.0,M,,0000*6A
$GPGSV,3,1,09,20,45,000,31,32,45,030,37,11,45,060,34,17,45,090,37*7E
$GPGSV,3,2,09,23,45,120,33,31,45,150,36,13,45,180,24,14,45,210,0*4B
$GPGSV,3,3,09,04,45,240,0*73
$GPRMC,181258.000,A,4835.3847,N,00905.5583,E,050.98,99.99,091208,,,E*5E
$RTDIST,A,3,2.5,1.4,2.1,7574*50
$GPGGA,181300.000,4835.3835,N,00905.6002,E,1,6,1.4,0553.0,M,0.0,M,,0000*68
$GPGSV,3,1,09,20,45,000,30,32,45,030,37,11,45,060,40,17,45,090,38*73
$GPGSV,3,2,09,23,45,120,39,31,45,150,41,13,45,180,21,14,45,210,0*44
$GPGSV,3,3,09,04,45,240,0*73
$GPRMC,181300.000,A,4835.3835,N,00905.6002,E,050.03,91.03,091208,,,E*51
$RTDIST,A,3,2.5,1.4,2.1,7626*54
$GPGGA,181302.000,4835.3883,N,00905.6413,E,1,6,1.4,0552.7,M,0.0,M,,0000*65
$GPGSV,3,1,09,20,45,000,27,32,45,030,38,11,45,060,37,17,45,090,38*7A
$GPGSV,3,2,09,23,45,120,38,31,45,150,42,13,45,180,21,14,45,210,13*74
$GPGSV,3,3,09,04,45,240,0*73
$GPRMC,181302.000,A,4835.3883,N,00905.6413,E,049.75,81.59,091208,,,E*5D
$RTDIST,A,3,2.5,1.4,2.1,7677*50
$GPGGA,181304.000,4835.3961,N,00905.6831,E,1,6,1.4,0552.7,M,0.0,M,,0000*62
$GPGSV,3,1,09,20,45,000,29,32,45,030,38,11,45,060,37,17,45,090,38*74
$GPGSV,3,2,09,23,45,120,39,31,45,150,42,13,45,180,21,14,45,210,13*75
$GPGSV,3,3,09,04,45,240,0*73
$GPRMC,181304.000,A,4835.3961,N,00905.6831,E,052.18,76.47,091208,,,E*5C
$RTDIST,A,3,2.5,1.4,2.1,7730*52
$GPGGA,181306.000,4835.4034,N,00905.7261,E,1,6,1.4,0552.4,M,0.0,M,,0000*63
$GPGSV,3,1,09,20,45,000,29,32,45,030,38,11,45,060,37,17,45,090,38*74
$GPGSV,3,2,09,23,45,120,40,31,45,150,42,13,45,180,21,14,45,210,13*7B
$GPGSV,3,3,09,04,45,240,0*73
$GPRMC,181306.000,A,4835.4034,N,00905.7261,E,053.66,76.09,091208,,,E*5C
$RTDIST,A,3,2.5,1.4,2.1,7785*5C
$GPGGA,181308.000,4835.4108,N,00905.7702,E,1,6,1.4,0552.4,M,0.0,M,,0000*63
$GPGSV,3,1,09,20,45,000,30,32,45,030,38,11,45,060,37,17,45,090,38*7C
$GPGSV,3,2,09,23,45,120,40,31,45,150,42,13,45,180,21,14,45,210,12*7A
$GPGSV,3,3,09,04,45,240,0*73
$GPRMC,181308.000,A,4835.4108,N,00905.7702,E,054.69,77.41,091208,,,E*59
$RTDIST,A,3,2.5,1.4,2.1,7840*5A
$GPGGA,181310.000,4835.4174,N,00905.8154,E,1,6,1.4,0552.4,M,0.0,M,,0000*6B
$GPGSV,3,1,09,20,45,000,30,32,45,030,38,11,45,060,38,17,45,090,37*7C
$GPGSV,3,2,09,23,45,120,41,31,45,150,42,13,45,180,26,14,45,210,0*4F
$GPGSV,3,3,09,04,45,240,0*73
$GPRMC,181310.000,A,4835.4174,N,00905.8154,E,055.76,78.29,091208,,,E*5F
$RTDIST,A,3,2.5,1.4,2.1,7897*50
$GPGGA,181312.000,4835.4234,N,00905.8615,E,1,6,1.4,0552.5,M,0.0,M,,0000*6D
$GPGSV,3,1,09,20,45,000,30,32,45,030,38,11,45,060,38,17,45,090,34*7F
$GPGSV,3,2,09,23,45,120,41,31,45,150,43,13,45,180,25,14,45,210,0*4D
$GPGSV,3,3,09,04,45,240,0*73
$GPRMC,181312.000,A,4835.4234,N,00905.8615,E,056.32,79.78,091208,,,E*5E
$RTDIST,A,3,2.5,1.4,2.1,7955*5F
